city,category,name,address,latitude,longitude,rating,user_ratings_total,administrative_region,postal_code
Warsaw,restaurant,Stary Dom,"Puławska 104/106, 02-620 Warszawa, Poland",52.1955548,21.0238317,4.7,9089,Województwo mazowieckie,02-620
Warsaw,restaurant,GOŚCINIEC Polskie Pierogi,"Nowy Świat 43, 00-042 Warszawa, Poland",52.2347014,21.0184249,4.7,9763,Województwo mazowieckie,00-042
Warsaw,restaurant,Restauracja Portretowa,"Piekarska 6, 00-264 Warszawa, Poland",52.248546,21.0110243,4.5,1301,Województwo mazowieckie,00-264
Warsaw,restaurant,Soul Kitchen,"Nowogrodzka 18A, 00-511 Warszawa, Poland",52.229555,21.0148867,4.7,4370,Województwo mazowieckie,00-511
Warsaw,restaurant,Restauracja Delicja Polska,"Krakowskie Przedmieście 64, 00-322 Warszawa, Poland",52.2454325,21.0142753,4.7,1395,Województwo mazowieckie,00-322
Warsaw,restaurant,Stara Kamienica,"Widok 8, 00-023 Warszawa, Poland",52.2315639,21.015275,4.6,2035,Województwo mazowieckie,00-023
Warsaw,restaurant,U Szwejka,"plac Konstytucji 1, 00-647 Warszawa, Poland",52.2213354,21.0160374,4.5,20730,Województwo mazowieckie,00-647
Warsaw,restaurant,N31 Restaurant & Bar,"Nowogrodzka 31, 00-511 Warszawa, Poland",52.2288769,21.0134836,4.8,1723,Województwo mazowieckie,00-511
Warsaw,restaurant,Podwale 25 Kompania Piwna,"Podwale 25, 00-261 Warszawa, Poland",52.2500722,21.0093433,4.5,16049,Województwo mazowieckie,00-261
Warsaw,restaurant,Gościniec,"Podwale 19, 00-252 Warszawa, Poland",52.2490382,21.0093376,4.7,11046,Województwo mazowieckie,00-257
Warsaw,restaurant,Bazyliszek Restaurant,"Rynek Starego Miasta 1/3, 00-272 Warszawa, Poland",52.2495622,21.0129158,4.3,11500,Województwo mazowieckie,00-272
Warsaw,restaurant,Czerwony Wieprz | restauracja polska Warszawa Śródmieście,"Żelazna 68, 00-866 Warszawa, Poland",52.2369553,20.9896407,4.4,5863,Województwo mazowieckie,00-866
Warsaw,restaurant,Restauracja Różana,"Chocimska 7, 00-791 Warszawa, Poland",52.2084336,21.0235438,4.7,5444,Województwo mazowieckie,00-791
Warsaw,restaurant,Zapiecek,"Krakowskie Przedmieście 55, 00-071 Warszawa, Poland",52.2450436,21.013711,4.4,12588,Województwo mazowieckie,00-071
Warsaw,restaurant,GOŚCINIEC Polskie Pierogi,"Piwna 12/14/lu3, 00-265 Warszawa, Poland",52.2485029,21.0126806,4.7,9364,Województwo mazowieckie,00-265
Warsaw,restaurant,Restauracja Primitivo Kuchnia i Wino - kuchnia śródziemnomorska Warszawa,"Waliców 13, 00-851 Warszawa, Poland",52.235268,20.992115,4.9,1548,Województwo mazowieckie,00-865
Warsaw,restaurant,CUD MIÓD,"Nowogrodzka 56, 00-695 Warszawa, Poland",52.2277225,21.0065569,4.5,4649,Województwo mazowieckie,00-695
Warsaw,restaurant,Der Elefant,"plac Bankowy 1, 00-139 Warszawa, Poland",52.2417903,21.0035137,4.5,9797,Województwo mazowieckie,00-139
Warsaw,restaurant,Whiskey in the Jar,"Marszałkowska 53, 00-676 Warszawa, Poland",52.2231413,21.0149735,4.6,6740,Województwo mazowieckie,00-676
Warsaw,restaurant,the morning after (the night before),"Poznańska 7, 00-680 Warszawa, Poland",52.2240155,21.0122537,4.6,862,Województwo mazowieckie,00-680
Warsaw,restaurant,Warszawa Wschodnia,"Soho Factory, Mińska 29A/bud. 46, 03-808 Warszawa, Poland",52.24963409999999,21.0606549,4.5,5119,Województwo mazowieckie,03-808
Warsaw,restaurant,Nar Restaurant Warsaw,"Żurawia 47/49, 00-680 Warszawa, Poland",52.2271606,21.0111021,4.7,591,Województwo mazowieckie,00-001
Warsaw,restaurant,ČESKÁ beer restaurant,"Chmielna 35, 00-801 Warszawa, Poland",52.2316571,21.0119596,4.4,8196,Województwo mazowieckie,00-021
Warsaw,restaurant,SELAVI Restaurant & Bar,"plac Stanisława Małachowskiego 2, 00-066 Warszawa, Poland",52.2390517,21.0128005,4.3,1254,Województwo mazowieckie,00-066
Warsaw,restaurant,Specjały Regionalne,"Nowy Świat 44, 00-363 Warszawa, Poland",52.234567,21.019048,4.4,3770,Województwo mazowieckie,00-363
Warsaw,restaurant,Lokanta,"Nowogrodzka 47A, 00-695 Warszawa, Poland",52.2278131,21.0084407,4.1,2072,Województwo mazowieckie,00-695
Warsaw,restaurant,Gospoda Kwiaty Polskie,"Wąski Dunaj 4/6/8, 00-256 Warszawa, Poland",52.249764,21.011035,4.4,2268,Województwo mazowieckie,00-256
Warsaw,restaurant,Hala Koszyki,"Koszykowa 63, 00-667 Warszawa, Poland",52.2224832,21.0115264,4.6,22054,Województwo mazowieckie,00-667
Warsaw,restaurant,STOLICA Restauracja Stare Miasto Warszawa starówka kuchnia polska,"Szeroki Dunaj 1/3, 00-255 Warszawa, Poland",52.2494869,21.0105005,4.6,1209,Województwo mazowieckie,00-255
Warsaw,restaurant,Restauracja ELIXIR by Dom Wódki | polish restaurant Warsaw,"Wierzbowa 9/11, 00-094 Warszawa, Poland",52.2434747,21.0084895,4.7,1605,Województwo mazowieckie,00-094
Warsaw,restaurant,InFormal Kitchen,"plac Stanisława Małachowskiego 2, 00-066 Warszawa, Poland",52.2389951,21.0137444,4.7,2092,Województwo mazowieckie,00-067
Warsaw,restaurant,THAISTY,"plac Bankowy 4, 00-095 Warszawa, Poland",52.2431129,21.0033918,4.5,7477,Województwo mazowieckie,00-095
Warsaw,restaurant,Prodiz Warszawski,"Poznańska 16, 00-680 Warszawa, Poland",52.22521870000001,21.0119788,4.6,1754,Województwo mazowieckie,00-680
Warsaw,restaurant,Namaste India,"Nowogrodzka 15, 00-511 Warszawa, Poland",52.2295805,21.0164484,4.4,2653,Województwo mazowieckie,00-511
Warsaw,restaurant,Prime Cut | The best steak in Warsaw,"Twarda 18, 00-105 Warszawa, Poland",52.2344719,20.999164,4.5,2022,Województwo mazowieckie,00-105
Warsaw,restaurant,Restauracja Bubbles Warszawa,"plac Marszałka Józefa Piłsudskiego 9, 00-078 Warszawa, Poland",52.2429961,21.0114895,4.5,1105,Województwo mazowieckie,00-078
Warsaw,restaurant,RADIO CAFE,"Nowogrodzka 56, 00-695 Warszawa, Poland",52.2276932,21.0066691,4.4,2190,Województwo mazowieckie,00-695
Warsaw,restaurant,U Sióstr,"Złota 63A, 00-819 Warszawa, Poland",52.2300171,20.9989091,4.4,2769,Województwo mazowieckie,00-819
Warsaw,restaurant,Nuta,"LOKALIZACJA: ETHOS, plac Trzech Krzyży 10/14, 00-499 Warszawa, Poland",52.2290834,21.0231102,4.8,272,Województwo mazowieckie,00-535
Warsaw,restaurant,Restaurant Le Braci,"Górnośląska 24, 00-484 Warszawa, Poland",52.224413,21.0287939,4.5,484,Województwo mazowieckie,00-484
Warsaw,restaurant,Butchery & Wine,"Żurawia 22, 00-515 Warszawa, Poland",52.2285741,21.0154928,4.6,2171,Województwo mazowieckie,00-515
Warsaw,restaurant,Beef and Pepper Steak house,"Nowogrodzka 47A, 00-695 Warszawa, Poland",52.2277778,21.0083333,4.6,6963,Województwo mazowieckie,00-695
Warsaw,restaurant,Restauracja Kamienne Schodki s.c.,"Rynek Starego Miasta 26, 00-272 Warszawa, Poland",52.2504062,21.012195,4.5,1590,Województwo mazowieckie,00-272
Warsaw,restaurant,Rozbrat 20,"Rozbrat 20, 00-447 Warszawa, Poland",52.2241705,21.0350738,4.7,751,Województwo mazowieckie,00-447
Warsaw,restaurant,Barbakan-Korkociąg,"Freta 1, 00-227 Warszawa, Poland",52.2509138,21.0087707,4.1,1474,Województwo mazowieckie,00-227
Warsaw,restaurant,Restauracja Romantyczna,"Rynek Starego Miasta 18, 00-272 Warszawa, Poland",52.2501377,21.012398,4.2,878,Województwo mazowieckie,00-272
Warsaw,restaurant,Nobu Restaurant Warsaw,"Wilcza 73, 00-670 Warszawa, Poland",52.22291990000001,21.0076611,4.0,354,Województwo mazowieckie,00-671
Warsaw,restaurant,Reina Steakhouse,"Jasna 10, 00-013 Warszawa, Poland",52.2344326,21.0118995,4.6,1072,Województwo mazowieckie,00-013
Warsaw,restaurant,Le Petit Chef - Warsaw,"Grzybowska 63, 00-844 Warszawa, Poland",52.23331959999999,20.9862688,4.4,109,Województwo mazowieckie,00-844
Warsaw,restaurant,La Brasserie Moderne,"Królewska 11, 00-065 Warszawa, Poland",52.23979440000001,21.0126455,4.4,228,Województwo mazowieckie,00-065
Warsaw,restaurant,Restauracja PAPU,"al. Niepodległości 132/136, 02-554 Warszawa, Poland",52.204389,21.0100882,4.6,1016,Województwo mazowieckie,02-554
Warsaw,restaurant,Restauracja U Wieniawy,"plac Marszałka Józefa Piłsudskiego 9, 00-078 Warszawa, Poland",52.2430891,21.0116901,4.8,884,Województwo mazowieckie,00-078
Warsaw,restaurant,Hard Rock Cafe Warsaw,"Ul. Zlota, Złote Tarasy 59, 00-120 Złota, Poland",52.2299936,21.0040312,4.4,12594,Województwo mazowieckie,00-118
Warsaw,restaurant,Restauracja Literatka,"Krakowskie Przedmieście 87/89, 00-079 Warszawa, Poland",52.2468793,21.0132171,4.2,2725,Województwo mazowieckie,00-001
Warsaw,restaurant,Ceprownia - polska restauracja w góralskim stylu,"Krakowskie Przedmieście 7, 00-068 Warszawa, Poland",52.240268,21.0163496,4.5,1884,Województwo mazowieckie,00-068
Warsaw,restaurant,Restauracja Przy Zamku,"plac Zamkowy 15/19, 03-401 Warszawa, Poland",52.24797119999999,21.0135102,4.0,734,Województwo mazowieckie,03-412
Warsaw,restaurant,Wiesz co Zjesz,"plac Konstytucji 1, 00-647 Warszawa, Poland",52.2210293,21.0168745,4.6,1075,Województwo mazowieckie,00-647
Warsaw,restaurant,Nolita,"Wilcza 46, 00-679 Warszawa, Poland",52.22437189999999,21.0126248,4.6,509,Województwo mazowieckie,00-679
Warsaw,restaurant,Pod Gigantami,"Al. Ujazdowskie 24, 00-535 Warszawa, Poland",52.2270353,21.0236195,4.4,681,Województwo mazowieckie,00-535
Warsaw,restaurant,Platter by Karol Okrasa,"Emilii Plater 49, 00-125 Warszawa, Poland",52.2325771,21.0026669,4.6,588,Województwo mazowieckie,00-125
Warsaw,museum,Muzeum Powstania Warszawskiego,"Grzybowska 79, 00-844 Warszawa, Poland",52.2328613,20.9810343,4.7,35657,Województwo mazowieckie,00-844
Warsaw,museum,Muzeum Warszawy,"Rynek Starego Miasta 28/42, 00-272 Warszawa, Poland",52.2499581,21.0114383,4.6,3118,Województwo mazowieckie,00-288
Warsaw,museum,Muzeum Narodowe w Warszawie,"Aleje Jerozolimskie 3, 00-495 Warszawa, Poland",52.2321171,21.0242024,4.6,19751,Województwo mazowieckie,03
Warsaw,museum,The Royal Castle in Warsaw,"plac Zamkowy 4, 00-277 Warszawa, Poland",52.2477436,21.0141275,4.7,52801,Województwo mazowieckie,00-277
Warsaw,museum,Museum of Fryderyk Chopin in Warsaw,"Pałac Gnińskich, Okólnik 1, 00-368 Warszawa, Poland",52.23653969999999,21.0229345,4.5,5928,Województwo mazowieckie,00-355
Warsaw,museum,POLIN Museum of the History of Polish Jews,"Mordechaja Anielewicza 6, 00-157 Warszawa, Poland",52.2494958,20.993481,4.6,19211,Województwo mazowieckie,00-157
Warsaw,museum,Pawiak Prison Museum,"Dzielna 24/26, 00-162 Warszawa, Poland",52.24619999999999,20.9908939,4.6,2461,Województwo mazowieckie,00-162
Warsaw,museum,Muzeum Świat Iluzji / Museum World of Illusion,"Rynek Starego Miasta 21, 00-272 Warszawa, Poland",52.2495279,21.0118534,4.1,4307,Województwo mazowieckie,00-272
Warsaw,museum,Be Happy Museum Warszawa,"Aleje Jerozolimskie 148, 02-326 Warszawa, Poland",52.2135608,20.9517495,4.6,1061,Województwo mazowieckie,02-336
Warsaw,museum,Cosmos Muzeum Warszawa,"Łucka 15/3, 00-842 Warszawa, Poland",52.2322053,20.987699,4.0,3514,Województwo mazowieckie,00-842
Warsaw,museum,Katyń Museum,"Jana Jeziorańskiego 4, 01-521 Warszawa, Poland",52.2608777,21.0031187,4.7,1108,Województwo mazowieckie,01-521
Warsaw,museum,Muzeum Polskiej Wódki,"Plac Konesera 1, 03-736 Warszawa, Poland",52.25536409999999,21.0460038,4.6,3390,Województwo mazowieckie,03-736
Warsaw,museum,Museum of Polish Military Technology,"Powsińska 13, 02-920 Warszawa, Poland",52.1827288,21.0668741,4.6,2979,Województwo mazowieckie,02-920
Warsaw,museum,"MUZEUM DOMKÓW LALEK, GIER I ZABAWEK","Podwale 15, 00-252 Warszawa, Poland",52.2484158,21.0097179,4.6,1808,Województwo mazowieckie,00-252
Warsaw,museum,Warsaw Railway Museum,"Towarowa 3, 00-811 Warszawa, Poland",52.2263744,20.9870576,4.6,4759,Województwo mazowieckie,00-811
Warsaw,museum,Geological Museum,"Rakowiecka 4, 00-975 Warszawa, Poland",52.2103189,21.0127984,4.7,3592,Województwo mazowieckie,00-975
Warsaw,museum,Maria Skłodowska-Curie Museum,"Freta 16, 00-227 Warszawa, Poland",52.251534,21.0085499,4.5,1669,Województwo mazowieckie,00-227
Warsaw,museum,National Museum of Technology in Warsaw,"plac Defilad 1, 00-901 Warszawa, Poland",52.2304322,21.0059171,4.4,1446,Województwo mazowieckie,00-901
Warsaw,museum,Warszawskie Muzeum Komputerow i Gier,"przejście podziemne, al. Niepodległości 208a/Pawilon 1, 00-609 Warszawa, Poland",52.2169335,21.0044044,4.9,1080,Województwo mazowieckie,03
Warsaw,museum,Museum of King Jan III's Palace at Wilanów,"Stanisława Kostki Potockiego 10/16, 02-958 Warszawa, Poland",52.1651749,21.0905084,4.7,27273,Województwo mazowieckie,03
Warsaw,museum,Centrum Nauki Kopernik,"Wybrzeże Kościuszkowskie 20, 00-390 Warszawa, Poland",52.2418552,21.0287271,4.6,55829,Województwo mazowieckie,00-390
Warsaw,museum,Mauzoleum Walki i Męczeństwa,"aleja Jana Chrystiana Szucha 25, 00-580 Warszawa, Poland",52.2174725,21.0235452,4.6,632,Województwo mazowieckie,00-580
Warsaw,museum,Neon Museum,"Soho Factory, Praga District, Mińska 25/budynek 55, 03-808 Warszawa, Poland",52.2501549,21.0623581,4.4,1808,Województwo mazowieckie,01-247
Warsaw,museum,Muzeum Życia w PRL,"Piękna 28/34, 00-547 Warszawa, Poland",52.2234186,21.0164752,4.6,4967,Województwo mazowieckie,00-547
Warsaw,museum,"Interactive Museum of Pinball ""Pinball Station""","Kolejowa 8A, 01-210 Warszawa, Poland",52.22463279999999,20.9781884,4.8,3345,Województwo mazowieckie,01-210
Warsaw,museum,melt museum,"plac Powstańców Warszawy 2A, 00-030 Warszawa, Poland",52.2347408,21.0145492,4.1,687,Województwo mazowieckie,00-030
Warsaw,museum,Museum of Evolution,"plac Defilad, 00-901 Warszawa, Poland",52.2323287,21.0058526,4.3,2767,Województwo mazowieckie,00-901
Warsaw,museum,Centrum Pieniądza NBP im. Sławomira S. Skrzypka,"Świętokrzyska 11/21, 00-919 Warszawa, Poland",52.2361467,21.0145278,4.7,5857,Województwo mazowieckie,00-049
Warsaw,museum,Muzeum Wódki | muzeum Warszawa | museum Warsaw | Tourist attraction Warsaw,"Wierzbowa 11, 00-094 Warszawa, Poland",52.2433861,21.0076445,4.2,567,Województwo mazowieckie,00-094
Warsaw,museum,Zacheta,"plac Stanisława Małachowskiego 3, 00-916 Warszawa, Poland",52.2393814,21.0117982,4.5,4090,Województwo mazowieckie,02-972
Warsaw,museum,The Andrzej Wawrzyniak Asia and Pacific Museum,"Solec 24, 00-403 Warszawa, Poland",52.2334274,21.0367611,4.5,1704,Województwo mazowieckie,00-403
Warsaw,museum,National Museum of Ethnography,"Kredytowa 1, 00-056 Warszawa, Poland",52.2381792,21.0121447,4.4,2096,Województwo mazowieckie,00-056
Warsaw,museum,Museum of Modern Art,"Marszałkowska 103, 00-110 Warszawa, Poland",52.23314449999999,21.0092567,2.3,347,Województwo mazowieckie,00-110
Warsaw,museum,Niewidzialna Wystawa,"Aleje Jerozolimskie 123a, 02-017 Warszawa, Poland",52.2249493,20.9911296,4.8,2735,Województwo mazowieckie,02-017
Warsaw,museum,Muzeum Sztuki Fantastycznej,"Ząbkowska 31, 03-736 Warszawa, Poland",52.25491599999999,21.0449593,4.5,385,Województwo mazowieckie,03-736
Warsaw,museum,Muzeum Warszawskiej Pragi,"Targowa 50/52, 03-733 Warszawa, Poland",52.25160959999999,21.0392656,4.5,1333,Województwo mazowieckie,03-733
Warsaw,museum,"Xawery Dunikowski Museum in Królikarnia, Branch of the National Museum in Warsaw","Puławska 113a, 02-707 Warszawa, Poland",52.1890908,21.0284115,4.6,2255,Województwo mazowieckie,02-707
Warsaw,museum,"Museum of the 10th Pavilion of the Warsaw Citadel, branch of the Independence Museum","Skazańców 25, 01-532 Warszawa, Poland",52.2668689,21.0008523,4.5,1821,Województwo mazowieckie,01-532
Warsaw,museum,Polish Army Museum,"Cytadela Warszawska - Plac Gwardii Pieszej Koronnej - Pawilon Południowy, Dymińska 13, 01-519 Warszawa, Poland",52.2641934,20.999474,4.6,8293,Województwo mazowieckie,01-538
Warsaw,museum,Museum of the Warsaw Archdiocese,"Ulica Dziekania 1, 00-279 Warszawa, Poland",52.2487891,21.0140347,4.6,506,Województwo mazowieckie,00-279
Warsaw,museum,Muzeum Historii Polski - Cytadela Warszawska,"Gwardii 1, 01-538 Warszawa, Poland",52.2649321,21.0007102,4.1,875,Województwo mazowieckie,01-538
Warsaw,museum,Museum of Caricature E. Lipiński,"Kozia 11, 00-070 Warszawa, Poland",52.24503499999999,21.013155,4.3,694,Województwo mazowieckie,00-070
Warsaw,museum,Free Belarus Museum,"Foksal 11, 00-327 Warszawa, Poland",52.2337487,21.0217953,4.7,20,Województwo mazowieckie,00-372
Warsaw,museum,Muzeum Zimnej Wojny im. generała Kuklińskiego,"Jezuicka 1/3, 00-281 Warszawa, Poland",52.2494263,21.0133035,4.8,180,Województwo mazowieckie,00-281
Warsaw,museum,Jewish Historical Institute,"Tłomackie 3/5, 00-090 Warszawa, Poland",52.24432410000001,21.0027497,4.5,172,Województwo mazowieckie,00-088
Warsaw,museum,"Monument Interpretation Center, branch of the Museum of Warsaw","Brzozowa 11/13, 00-278 Warszawa, Poland",52.2501486,21.0131144,4.4,182,Województwo mazowieckie,00-258
Warsaw,museum,Antonina Leśniewska Museum of Pharmacy,"Piwna 31/33, 00-265 Warszawa, Poland",52.2490493,21.0113358,4.4,353,Województwo mazowieckie,00-265
Warsaw,museum,Lazienki Palace,"Agrykola 1, 00-460 Warszawa, Poland",52.2150475,21.035814,4.8,18938,Województwo mazowieckie,00-460
Warsaw,museum,"Adam Mickiewicz Museum of Literature, Warsaw","Rynek Starego Miasta 20, 00-272 Warszawa, Poland",52.2502752,21.0124325,4.4,234,Województwo mazowieckie,00-272
Warsaw,museum,Museum of Independence,"al. „Solidarności” 62, 00-240 Warszawa, Poland",52.2454139,21.0041771,4.4,282,Województwo mazowieckie,00-240
Warsaw,museum,Warsaw Gasworks Museum,"Seweryna Krzyżanowskiego 7, 01-220 Warszawa, Poland",52.2265662,20.9666344,4.7,426,Województwo mazowieckie,01-220
Warsaw,museum,Warsaw Fotoplastikon,"Aleje Jerozolimskie 51, 00-697 Warszawa, Poland",52.2286022,21.0086053,4.6,1052,Województwo mazowieckie,00-697
Warsaw,museum,Museum of Hunting and Horsemanship,"Agrykola 1, 00-460 Warszawa, Poland",52.2135173,21.039022,4.6,400,Województwo mazowieckie,00-460
Warsaw,museum,Art Box Experience,"Żelazna 51/53, 00-841 Warszawa, Poland",52.2324761,20.9917077,4.6,1139,Województwo mazowieckie,00-841
Warsaw,museum,Museum of Sport and Tourism,"Wybrzeże Gdyńskie 4, 01-531 Warszawa, Poland",52.274072,20.9970887,4.6,730,Województwo mazowieckie,01-531
Warsaw,museum,Ujazdów Castle,"Jazdów 2, 00-467 Warszawa, Poland",52.2195765,21.0304445,4.6,3832,Województwo mazowieckie,00-467
Warsaw,museum,Museum of the University of Warsaw,"Krakowskie Przedmieście 32, 00-927 Warszawa, Poland",52.2406186,21.0166352,4.6,71,Województwo mazowieckie,00-927
Warsaw,museum,Museum of Cursed Soldiers and Political Prisoners of the Polish People’s Republic,"Rakowiecka 37, 02-521 Warszawa, Poland",52.20769929999999,21.0109348,4.8,822,Województwo mazowieckie,02-521
Warsaw,museum,"Museum of the Earth, Polish Academy of Sciences","aleja Na Skarpie 20/26, 00-488 Warszawa, Poland",52.2290234,21.0284808,4.4,768,Województwo mazowieckie,00-488
Warsaw,museum,Warsaw Bread Museum,"Jadowska 2, 03-761 Warszawa, Poland",52.26164,21.0574648,4.9,12,Województwo mazowieckie,03-762
Warsaw,park,Royal Łazienki Park,"Agrykola 1, 00-460 Warszawa, Poland",52.2146733,21.0328941,4.8,87883,Masovian Voivodeship,03
Warsaw,park,Ujazdowski Park,"Al. Ujazdowskie 6, 00-001 Warszawa, Poland",52.2206481,21.02687,4.7,7871,Województwo mazowieckie,00-467
Warsaw,park,Saxon Garden,"Marszałkowska, 00-102 Warszawa, Poland",52.240265,21.0076337,4.7,27303,Masovian Voivodeship,03
Warsaw,park,Skaryszewski Park in the name of Ignacy Jan Paderewski,"al. Jerzego Waszyngtona, 00-999 Warszawa, Poland",52.2420521,21.0543913,4.7,14858,Masovian Voivodeship,03
Warsaw,park,Park Świętokrzyski,"Świętokrzyska, 00-901 Warszawa, Poland",52.2340384,21.0059978,4.5,4817,Województwo mazowieckie,00-901
Warsaw,park,Park Szczęśliwicki,"02-384 Warsaw, Poland",52.20474129999999,20.9593258,4.7,15433,Województwo mazowieckie,02-384
Warsaw,park,Park Morskie Oko,"Puławska 53B, Warszawa, Poland",52.2066104,21.0262422,4.6,5742,Województwo mazowieckie,03
Warsaw,park,Park Józefa Polińskiego,"Szaserów 125, 04-349 Warszawa, Poland",52.2485846,21.0899262,4.6,3425,Województwo mazowieckie,04-349
Warsaw,park,Arkadia Park,"Puławska, 02-700 Warszawa, Poland",52.1906985,21.0285345,4.7,3975,Województwo mazowieckie,02-700
Warsaw,park,Krasiński Garden,"Gen. W. Andersa, 00-242 Warszawa, Poland",52.248222,21.0027489,4.7,9190,Masovian Voivodeship,03
Warsaw,park,Park Mirowski,"plac Mirowski 1, 00-138 Warszawa, Poland",52.2382314,20.9992694,4.4,1032,Masovian Voivodeship,03
Warsaw,park,Bródnowski Park,"03-337 Warsaw, Poland",52.2906686,21.0369218,4.6,9006,Masovian Voivodeship,03
Warsaw,park,Park Łazienki Królewskie,"Agrykola 1, 00-747 Warszawa, Poland",52.2164542,21.030265,4.9,542,Województwo mazowieckie,00-467
Warsaw,park,Marshal Edward Rydz-Śmigły Park,"Rozbrat, 02-510 Warszawa, Poland",52.228322,21.0300749,4.6,4406,Województwo mazowieckie,02-510
Warsaw,park,Stefan Żeromski Park,"Warsaw, Poland",52.2684168,20.988494,4.7,4423,Masovian Voivodeship,03
Warsaw,park,Park Praski,"al. „Solidarności”, 03-461 Warszawa, Poland",52.2528201,21.027713,4.6,6538,Województwo mazowieckie,03-461
Warsaw,park,Zasław Malicki park,"Mariana Nowickiego 2, 02-112 Warszawa, Poland",52.2036023,20.9791415,4.6,1213,Masovian Voivodeship,03
Warsaw,park,Józef Sowiński Park,"Elekcyjna 17, 01-131 Warszawa, Poland",52.2317105,20.9477619,4.5,2055,Województwo mazowieckie,01-131
Warsaw,park,Park Kazimierzowski,"Browarna, Warszawa, Poland",52.24111730000001,21.0211639,4.5,1087,Województwo mazowieckie,03
Warsaw,park,Warsaw Insurgents Park,"Wolska, 01-258 Warszawa, Poland",52.2265346,20.9379068,4.7,2156,Województwo mazowieckie,01-258
Warsaw,park,Pole Mokotowskie,"al. Niepodległości, Warszawa, Poland",52.2126297,21.0034235,4.7,25031,Województwo mazowieckie,03
Warsaw,park,Górczewska Park,"Park, Górczewska, Warszawa, Poland",52.2335236,20.9053919,4.6,6798,Województwo mazowieckie,01-318
Warsaw,park,Moat Park and the Citadel Slopes in Warsaw,"Wybrzeże Gdyńskie, 01-532 Warszawa, Poland",52.2682358,20.9975831,4.8,636,Województwo mazowieckie,01-532
Warsaw,park,Park Edwarda Szymańskiego,"Elekcyjna, Warszawa, Poland",52.2338677,20.9518058,4.7,7000,Województwo mazowieckie,03
Warsaw,park,Park Pięciu Sióstr,"Aleje Jerozolimskie, 00-001 Warszawa, Poland",52.2170277,20.9665155,4.4,3104,Masovian Voivodeship,03
Warsaw,park,Mark Kotański Park,"1 Sierpnia, Warszawa, Poland",52.19573399999999,20.9682942,4.5,826,Województwo mazowieckie,03
Warsaw,park,Lasek na Kole,"00-999 Warsaw, Poland",52.2522201,20.9485739,4.6,2782,Masovian Voivodeship,03
Warsaw,park,Park ze Stawami Cietrzewia,"Cietrzewia, 02-480 Warszawa, Poland",52.2008836,20.9226037,4.8,2893,Województwo mazowieckie,02-490
Warsaw,park,Prince Janusz Park,"Koło, 00-001 Warszawa, Poland",52.2491467,20.9409458,4.7,470,Masovian Voivodeship,03
Warsaw,park,Park Akcji Burza,"Bartycka, 00-716 Warszawa, Poland",52.2119589,21.0555757,4.7,1428,Województwo mazowieckie,00-716
Warsaw,park,Park Olszyna,"Gąbińska, 00-001 Warszawa, Poland",52.2707237,20.9589503,4.5,2523,Województwo mazowieckie,01-703
Warsaw,park,Park. Pope John Paul II,"Eugeniusza Romera, 02-781 Warszawa, Poland",52.15630789999999,21.0282611,4.5,1534,Województwo mazowieckie,02-781
Warsaw,park,Las Bródnowski,"Ludwika Kondratowicza, Warszawa, Poland",52.2974578,21.0643365,4.6,3597,Województwo mazowieckie,03
Warsaw,park,Park Znicza,"Znicza 04-133, 04-121 Warszawa, Poland",52.2374095,21.0960371,4.6,1915,Województwo mazowieckie,04-121
Warsaw,park,General Gustaw Orlicz-Dreszer Park,"Puławska, 02-605 Warszawa, Poland",52.1977932,21.0211077,4.6,3082,Województwo mazowieckie,02-605
Warsaw,park,Park Agrykola,"01-001 Warsaw, Poland",52.2194598,21.0326975,4.7,243,Masovian Voivodeship,03
Warsaw,park,Park Dolinka Służewska,"Dolina Służewiecka, 00-001 Warszawa, Poland",52.1676391,21.0327499,4.5,4439,Masovian Voivodeship,03
Warsaw,park,Park Sielecki,"Sobieszyńska 35, Warszawa, Poland",52.19855949999999,21.0408363,4.6,924,Województwo mazowieckie,03
Warsaw,park,Park,"00-001 Warsaw, Poland",52.2306362,20.930041,4.5,32,Województwo mazowieckie,01-102
Warsaw,park,Park Sady Żoliborskie,"01-626 Warsaw, Poland",52.26737379999999,20.9723963,4.7,1698,Masovian Voivodeship,03
Warsaw,park,Park Romana Kozłowskiego,"Aleja Komisji Edukacji Narodowej, 02-785 Warszawa, Poland",52.1637333,21.0227975,4.6,2434,Województwo mazowieckie,02-785
Warsaw,park,Park. Zbigniew Herbert,"Zbigniewa Romaszewskiego, Warszawa, Poland",52.27352270000001,20.9551625,4.5,1262,Województwo mazowieckie,03
Warsaw,park,Greater Poland Park,"Aleja Wielkopolski, 02-064 Warszawa, Poland",52.2178264,20.9946443,4.5,595,Województwo mazowieckie,02-064
Warsaw,park,Park Szustrów,"aleja Andrzeja Panufnika, Warszawa, Poland",52.2039708,21.0248011,4.7,210,Województwo mazowieckie,03
Warsaw,park,Maria Sklodowska-Curie Park,"M. Skłodowskiej-Curie, 02-093 Warszawa, Poland",52.2147955,20.9846646,4.4,155,Województwo mazowieckie,02-034
Warsaw,park,Wilanów Park,"02-958 Warsaw, Poland",52.1631444,21.0902158,4.7,296,Masovian Voivodeship,03
Warsaw,park,Ławeczki w parku,"aleja Mariana Brandysa, Warszawa, Poland",52.2275544,21.0306711,4.4,12,Województwo mazowieckie,03
Warsaw,park,Karol Beyer Park,"Unnamed Road, Poland",52.234416,21.0272141,4.5,94,Województwo mazowieckie,00-375
Warsaw,park,Ogród Chiński,"Agrykola 1, Warszawa, Poland",52.21681170000001,21.032653,4.4,522,Województwo mazowieckie,03
Warsaw,park,Park Obwodu Praga Armii Krajowej,"Grochowska, Podskarbińska, Poland",52.2468286,21.0731226,4.5,1775,Masovian Voivodeship,03
Warsaw,park,Park Dolinka Szwajcarska,"Fryderyka Chopina 10, 00-559 Warszawa, Poland",52.2225,21.0222222,4.6,672,Województwo mazowieckie,00-559
Warsaw,park,Park miejski- Staw Służewiecki,"Slużew, Poland",52.1687805,21.0152117,4.6,476,Województwo mazowieckie,02-678
Warsaw,park,Park Tadeusza Mazowieckiego,"Myśliwiecka, 00-459 Warszawa, Poland",52.2225979,21.031321,4.6,107,Województwo mazowieckie,00-459
Warsaw,park,Romuald Traugutt Park,"00-001 Warsaw, Poland",52.256472,21.0029254,4.5,657,Województwo mazowieckie,00-208
Warsaw,park,Park Kaskada,"Kolektorska, 01-693 Warszawa, Poland",52.27327769999999,20.9700575,4.4,1371,Województwo mazowieckie,03
Warsaw,park,Forty Korotyńskiego Park,"Władysława Korotyńskiego, 02-121 Warszawa, Poland",52.2004187,20.9739081,4.5,993,Województwo mazowieckie,02-121
Warsaw,park,Park Polskich Wynalazców,"02-776 Warsaw, Poland",52.1525218,21.0533087,4.5,227,Województwo mazowieckie,02-796
Warsaw,park,Kamionkowskie Błonia Elekcyjne w Warszawie,"Stanisława Augusta, Warszawa, Poland",52.2434818,21.0653597,4.7,2180,Województwo mazowieckie,03
Warsaw,park,Park Skaryszewski,"aleja Zieleniecka 2, Warszawa, Poland",52.2445935,21.0579226,4.7,44,Województwo mazowieckie,03
Warsaw,park,Lakes in the Arkadia Park,"Piaseczyńska 4, 00-765 Warszawa, Poland",52.191547,21.0300532,4.8,55,Województwo mazowieckie,00-765
Warsaw,hospital,Medicover Hospital | Warsaw,"Aleja Rzeczypospolitej 5, 02-972 Warszawa, Poland",52.1556289,21.0788493,3.4,1020,Województwo mazowieckie,02-972
Warsaw,hospital,The Infant Jesus Teaching Hospital,"Williama Heerleina Lindleya 4, 02-005 Warszawa, Poland",52.2243321,20.9976381,2.5,535,Województwo mazowieckie,02-013
Warsaw,hospital,„Bielański” Hospital,"Cegłowska 80, 01-809 Warszawa, Poland",52.2867672,20.951251,2.3,1497,Województwo mazowieckie,00-809
Warsaw,hospital,"Mazovian ""Bródnowski"" Hospital","Ludwika Kondratowicza 8, 03-242 Warszawa, Poland",52.2909474,21.0445184,2.5,1008,Województwo mazowieckie,03-242
Warsaw,hospital,Southern Hospital,"Rotmistrza Witolda Pileckiego 99, 02-781 Warszawa, Poland",52.1465191,21.0356296,3.4,605,Województwo mazowieckie,02-781
Warsaw,hospital,Carolina Medical Center,"Pory 78, 02-757 Warszawa, Poland",52.1899424,21.0449948,3.2,656,Województwo mazowieckie,02-757
Warsaw,hospital,Pediatric Hospital of the Medical University of Warsaw,"Żwirki i Wigury 63A, 02-091 Warszawa, Poland",52.2071553,20.9831885,3.5,1081,Województwo mazowieckie,02-109
Warsaw,hospital,Czerniakowski Hospital Sp. z o. o.,"Stępińska 19/25, 00-739 Warszawa, Poland",52.205163,21.0370657,3.0,712,Województwo mazowieckie,00-739
Warsaw,hospital,Princess Anna Mazowiecka Clinical Hospital,"Karowa 2, 00-315 Warszawa, Poland",52.2450759,21.0218288,3.5,477,Województwo mazowieckie,00-315
Warsaw,hospital,LUX MED Szpital św. Elżbiety,"Seweryna Goszczyńskiego 1, 02-616 Warszawa, Poland",52.1954287,21.0211588,4.0,416,Województwo mazowieckie,02-616
Warsaw,hospital,Szpitalna Izba Przyjęć,"ul. Banacha 1 a, Blok D, parter, Poland",52.20856819999999,20.9834636,2.0,234,Województwo mazowieckie,02-097
Warsaw,hospital,Szpital Praski p.w. Przemienienia Pańskiego,"al. „Solidarności” 67, 03-401 Warszawa, Poland",52.2515553,21.029247,3.1,770,Województwo mazowieckie,03-401
Warsaw,hospital,Poliklinika II Samodzielnego Publicznego Dziecięcego Szpitala Klinicznego w Warszawie,"Żwirki i Wigury 63A, 02-091 Warszawa, Poland",52.2078329,20.9832801,3.6,44,Województwo mazowieckie,02-097
Warsaw,hospital,LUX MED hospital,"Puławska 455, 02-801 Warszawa, Poland",52.138301,21.018884,4.2,280,Województwo mazowieckie,02-819
Warsaw,hospital,Warsaw Hospital for Children,"Mikołaja Kopernika 43, 00-328 Warszawa, Poland",52.2376704,21.0194377,3.9,638,Województwo mazowieckie,00-328
Warsaw,hospital,Medical Center Enel-Med,"Uwaga: Wjazd od, Aleja Solidarności, Karolkowa 128, 01-195 Warszawa, Poland",52.2364526,20.9752136,3.5,339,Województwo mazowieckie,01-197
Warsaw,hospital,Szpital SOLEC,"Solec 93, 00-382 Warszawa, Poland",52.2356827,21.0312475,3.0,345,Województwo mazowieckie,00-382
Warsaw,hospital,Medical Center MML,"Bagno 2/lokal usługowy 7 (wejście E, 00-112 Warszawa, Poland",52.23580889999999,21.0053285,3.8,268,Województwo mazowieckie,00-112
Warsaw,hospital,Centrum Medyczne Żelazna sp z o.o.,"Żelazna 90, 01-004 Warszawa, Poland",52.2408846,20.9866742,4.0,701,Województwo mazowieckie,01-004
Warsaw,hospital,Medical Center Medicenter,"Wołoska 88, 02-507 Warszawa, Poland",52.2013983,21.0008909,2.9,201,Województwo mazowieckie,02-507
Warsaw,hospital,NFOZ ODDZIAL MAZOWIECKI,"00-694 Warsaw, Poland",52.2262243,21.0038876,3.0,2,Województwo mazowieckie,00-613
Warsaw,hospital,Medical Clinic IBIS,"Kacza 8, wejście od ul. Okopowej, wjazd na parking przyszpitalny „GRYF” od ul. Żytniej, 01-013 Warszawa, Poland",52.2409012,20.9801125,3.7,78,Województwo mazowieckie,01-013
Warsaw,hospital,Lądowisko Banacha-Szpital Pediatryczny,"Księcia Trojdena, 02-109 Warszawa, Poland",52.2087351,20.9827227,4.1,7,Województwo mazowieckie,02-097
Warsaw,hospital,Nowogrodzka Szpital,"Nowogrodzka 59, 02-005 Warszawa, Poland",52.22565179999999,21.000491,3.7,11,Województwo mazowieckie,02-006
Warsaw,hospital,Samodzielny Publiczny Szpital Kliniczny,"Czerniakowska 231, 00-416 Warszawa, Poland",52.229855,21.031712,3.3,235,Województwo mazowieckie,00-416
Warsaw,hospital,LUXMED,"Szamocka 6, 01-748 Warszawa, Poland",52.2575519,20.9595305,4.5,381,Województwo mazowieckie,01-748
Warsaw,hospital,Uniwersyteckie Centrum Zdrowia Kobiety i Noworodka WUM,"plac Sokratesa Starynkiewicza 1, 02-015 Warszawa, Poland",52.2242915,20.9952391,3.7,305,Województwo mazowieckie,02-015
Warsaw,hospital,Damian Medical Center,"Foksal 3/5, 00-366 Warszawa, Poland",52.233675,21.023343,3.4,202,Województwo mazowieckie,00-366
Warsaw,hospital,Szpital Orłowskiego,"Czerniakowska 231, 00-416 Warszawa, Poland",52.22961549999999,21.0320992,3.5,183,Województwo mazowieckie,00-416
Warsaw,hospital,Centrum Medyczne Medicover Inflancka,"Inflancka 5, 00-189 Warszawa, Poland",52.2545982,20.9923633,4.1,381,Województwo mazowieckie,00-189
Warsaw,hospital,Grochowski Hospital Admissions,"Grenadierów 51, 04-073 Warszawa, Poland",52.2420076,21.0786398,2.8,55,Województwo mazowieckie,04-073
Warsaw,hospital,Platinum Hospitals S.A.,"Seweryna Goszczyńskiego 1, 02-616 Warszawa, Poland",52.19544519999999,21.0214819,4.5,2,Województwo mazowieckie,02-616
Warsaw,hospital,Centrum Medyczne Alfa-Lek Warszawa,"Nowy Świat 58A, 00-363 Warszawa, Poland",52.23563540000001,21.0187586,3.7,385,Województwo mazowieckie,00-363
Warsaw,hospital,Military Institute of Aviation Medicine,"Zygmunta Krasińskiego 54/56, 01-755 Warszawa, Poland",52.26142549999999,20.9647081,3.4,234,Województwo mazowieckie,01-755
Warsaw,hospital,Centrum Medicover Atrium,"Warszawa Atrium, al. Jana Pawła II 27, 00-867 Warszawa, Poland",52.237727,20.9953381,4.0,529,Województwo mazowieckie,00-867
Warsaw,hospital,POLMED,"Twarda 18, 00-105 Warszawa, Poland",52.2347332,20.9991056,3.7,674,Województwo mazowieckie,00-105
Warsaw,hospital,Prosektorium Szpital Banacha,"Adolfa Pawińskiego 3B, 02-106 Warszawa, Poland",52.2077371,20.9803164,2.6,5,Województwo mazowieckie,02-106
Warsaw,hospital,"Salve Medica Warszawa (Klinika, Centrum Medyczne, Przychodnia, Klinika Płodności, Punkt Pobrań)","Aleja Wilanowska 365/2, 02-665 Warszawa, Poland",52.1788102,21.011634,4.7,1720,Województwo mazowieckie,02-665
Warsaw,hospital,Centrum Medyczne Damiana Wałbrzyska,"Wałbrzyska 46, 02-739 Warszawa, Poland",52.1733805,21.0224718,2.8,663,Województwo mazowieckie,02-739
Warsaw,hospital,Gamma Medical Center Sp o.o.,"Władysława Broniewskiego 3/01-785, 01-785 Warszawa, Poland",52.26241280000001,20.9773056,3.9,184,Województwo mazowieckie,01-785
Warsaw,hospital,Emergency room of Karowa Hospital,"Wybrzeże Kościuszkowskie 51, 05-077 Warszawa, Poland",52.2451563,21.0224524,3.7,22,Województwo mazowieckie,00-315
Warsaw,hospital,Medical University of Warsaw,"Adolfa Pawińskiego 7, 00-001 Warszawa, Poland",52.20606309999999,20.9852253,5.0,1,Województwo mazowieckie,02-143
Warsaw,hospital,Medicover Center,"Aleje Jerozolimskie 96, 00-807 Warszawa, Poland",52.2224748,20.9787825,3.9,619,Województwo mazowieckie,00-807
Warsaw,hospital,Wojewódzki Szpital Zakaźny w Warszawie,"Wolska 37, 01-201 Warszawa, Poland",52.2342431,20.9710454,4.1,366,Województwo mazowieckie,01-201
Warsaw,hospital,Centralny Szpital Kliniczny MSWiA w Warszawie | Klinika Chorób Dziecięcych i Noworodkowych | blok U,"02-001 Warsaw, Poland",52.1993062,20.997793,4.8,22,Województwo mazowieckie,02-507
Warsaw,hospital,enel-med Blue City,"Al. Jerozolimskie 179 C.H Blue City, 02-222 Warszawa, Poland",52.21273799999999,20.955652,4.1,486,Województwo mazowieckie,02-222
Warsaw,hospital,Centrum Medyczne PZU Zdrowie Warszawa Chmielna,"Chmielna 71, 00-801 Warszawa, Poland",52.22839519999999,20.9993077,4.4,264,Województwo mazowieckie,00-801
Warsaw,hospital,Mía,"Nowolipki, 00-001 Warszawa, Poland",52.24440870000001,20.9820359,0.0,0,Województwo mazowieckie,01-025
Warsaw,hospital,POLMED,"Wołoska 16, 02-675 Warszawa, Poland",52.1814613,21.0034828,3.8,490,Województwo mazowieckie,02-675
Warsaw,hospital,Centru Ecology,"00-001 Warsaw, Poland",52.2296756,21.0122287,0.0,0,Województwo mazowieckie,00-001
Warsaw,hospital,POLMED,"Grzybowska 61, 00-844 Warszawa, Poland",52.2331995,20.9872539,3.6,323,Województwo mazowieckie,00-844
Warsaw,hospital,Medic House - Warsaw,"Biały Kamień 7, 02-593 Warszawa, Poland",52.2069616,20.9959889,4.1,64,Województwo mazowieckie,02-593
Warsaw,hospital,Szpital Nowowiejski,"Nowowiejska 27, 00-665 Warszawa, Poland",52.21986949999999,21.008192,2.7,30,Województwo mazowieckie,00-665
Warsaw,hospital,enel-med oddział Warsaw Spire Warszawa,"od strony ulicy, plac Europejski, Towarowa 2c, 00-844 Warszawa, Poland",52.2325077,20.983403,4.8,196,Województwo mazowieckie,00-844
Warsaw,hospital,Institute of Psychiatry and Neurology,"Jana III Sobieskiego 9, 02-957 Warszawa, Poland",52.1722774,21.065264,3.2,309,Województwo mazowieckie,02-957
Warsaw,hospital,POLMED,"Targowa 24, 03-733 Warszawa, Poland",52.25002000000001,21.0422247,3.9,419,Województwo mazowieckie,03-733
Warsaw,hospital,Centrum Medyczne Medicover Grochowska,"Grochowska 306/308, 03-840 Warszawa, Poland",52.2471171,21.0626215,4.4,302,Województwo mazowieckie,03-840
Warsaw,hospital,Centrum Zdrowia Woli i Śródmieścia,"Grzybowska 34, 00-863 Warszawa, Poland",52.2356949,20.9941515,3.0,4,Województwo mazowieckie,00-891
Warsaw,hospital,Healthup Sp. Z O.o.,"Twarda 18, 00-105 Warszawa, Poland",52.2344307,20.9993429,3.0,1,Województwo mazowieckie,00-105
Warsaw,hospital,CMS - Centrum Medycyny Sportowej Warszawa,"Wawelska 5, 02-034 Warszawa, Poland",52.21323940000001,20.9926701,3.4,190,Województwo mazowieckie,02-061
Warsaw,school,The British School Warsaw,"Main school, Ul. Limanowskiego 15, 02-943 Warszawa, Poland",52.189543,21.0549092,3.1,98,Województwo mazowieckie,02-943
Warsaw,school,International American School of Warsaw,"Stefana Dembego 18, 02-796 Warszawa, Poland",52.132875,21.073223,4.0,46,Województwo mazowieckie,02-797
Warsaw,school,International European School in Warsaw,"Wiertnicza 140, 02-952 Warszawa, Poland",52.1772624,21.0756141,2.9,61,Województwo mazowieckie,02-952
Warsaw,school,International Trilingual School of Warsaw (ITSW) Trójjęzyczna szkoła podstawowa,"Królowej Aldony 23/lok 25, 03-928 Warszawa, Poland",52.2343262,21.0553202,4.1,51,Województwo mazowieckie,03-928
Warsaw,school,Warsaw Montessori High School IB,"W. Pytlasińskiego 13, 00-777 Warszawa, Poland",52.201609,21.0310908,3.8,10,Województwo mazowieckie,00-777
Warsaw,school,Monnet International School,"Stępińska 13, 00-739 Warszawa, Poland",52.2038641,21.0375766,4.1,21,Województwo mazowieckie,00-739
Warsaw,school,"International American School of Warsaw, Small School, Warszawa, Poland","Antoniego Chodorowskiego 12, 02-796 Warszawa, Poland",52.13155769999999,21.0760753,3.7,3,Województwo mazowieckie,02-797
Warsaw,school,British Primary School of Wilanow,"Prymasa Augusta Hlonda 12, 02-972 Warszawa, Poland",52.158492,21.066388,4.8,25,Województwo mazowieckie,02-972
Warsaw,school,Polish British Academy of Warsaw,"Wiertnicza 75, 02-952 Warszawa, Poland",52.1722927,21.0803256,4.3,18,Województwo mazowieckie,02-952
Warsaw,school,Thames British School (Ochota Campus),"Wawelska 66/74, 02-034 Warszawa, Poland",52.216673,20.984424,4.3,50,Województwo mazowieckie,02-034
Warsaw,school,Thames British School (Park Campus),"Usypiskowa 5, 02-386 Warszawa, Poland",52.2020557,20.9613066,4.9,30,Województwo mazowieckie,02-386
Warsaw,school,American School of Warsaw,"Warszawska 202, 05-520 Bielawa, Poland",52.11296489999999,21.1160284,4.1,82,Województwo mazowieckie,05-520
Warsaw,school,Multischool International Primary and Secondary School,"Niedźwiedzia 46, 02-666 Warszawa, Poland",52.17723909999999,21.0200873,3.2,88,Województwo mazowieckie,02-666
Warsaw,school,The British School Warsaw - Early Years Centre,"Early Years Centre, Jarosława Dąbrowskiego 84, 02-571 Warszawa, Poland",52.2006445,21.0083151,3.7,9,Województwo mazowieckie,02-571
Warsaw,school,VANCOUVER SCHOOLS Dwujęzyczna Angielsko Polska Szkoła Podstawowa International Elementary School,"Globusowa 38, 02-447 Warszawa, Poland",52.2102549,20.912748,4.2,30,Województwo mazowieckie,02-436
Warsaw,school,Thames British School (Mokotów Primary Campus),"Józefa i Jana Rostafińskich 1, 02-593 Warszawa, Poland",52.2072193,20.9971422,4.7,31,Województwo mazowieckie,02-593
Warsaw,school,Canadian Primary School,"Bełska 7, 02-638 Warszawa, Poland",52.1917217,20.9988727,3.8,22,Województwo mazowieckie,02-638
Warsaw,school,Warsaw Montessori Middle School,"Tatrzańska 5A, 00-742 Warszawa, Poland",52.2049798,21.0353355,2.6,10,Województwo mazowieckie,00-742
Warsaw,school,Warsaw Bilingual School Bilingual Primary School No. 77,"Radarowa 6, 02-137 Warszawa, Poland",52.1913306,20.9657089,2.9,28,Województwo mazowieckie,02-137
Warsaw,school,MyVinci School & Preschool,"Czerska 14, 00-732 Warszawa, Poland",52.2045402,21.0458934,3.6,20,Województwo mazowieckie,00-732
Warsaw,school,Społeczne Liceum Ogólnokształcące z Maturą Międzynarodową IB World School 1531 Raszyńska,"Raszyńska 22, 02-026 Warszawa, Poland",52.2209236,20.9892427,4.2,12,Województwo mazowieckie,02-026
Warsaw,school,Prywatna Polsko-Angielska Szkoła Podstawowa Edison,"Królewicza Jakuba 69, 02-954 Warszawa, Poland",52.1751786,21.0725691,3.8,28,Województwo mazowieckie,02-954
Warsaw,school,International Trilingual School of Warsaw (ITSW) Trójjęzyczna szkoła podstawowa,"Alfreda Nobla 16, 03-930 Warszawa, Poland",52.2336639,21.0596306,3.7,3,Województwo mazowieckie,03-930
Warsaw,school,Batory High School,"Myśliwiecka 6, 00-459 Warszawa, Poland",52.2226885,21.0345678,3.6,258,Województwo mazowieckie,00-459
Warsaw,school,Szkoła Międzynarodowa The International School,"Jagielska 2, 02-886 Warszawa, Poland",52.1122147,21.03999,4.2,10,Województwo mazowieckie,02-886
Warsaw,school,Female Private Schools them. Cecilia Plater-Zyberkówny,"Piękna 24/26, 00-549 Warszawa, Poland",52.2238386,21.0179987,3.8,61,Województwo mazowieckie,00-549
Warsaw,school,Sapiens UP School,"Bitwy Warszawskiej 1920 r. 7, 02-366 Warszawa, Poland",52.2123996,20.9718287,4.7,30,Województwo mazowieckie,02-366
Warsaw,school,Academy International Karolkowa 49 Dwujęzyczna Szkoła Podstawowa,"Karolkowa 49, 01-203 Warszawa, Poland",52.2342449,20.976515,3.5,14,Województwo mazowieckie,01-203
Warsaw,school,Private High School 32,"Zbierska 5, 00-745 Warszawa, Poland",52.2030544,21.0354089,3.8,13,Województwo mazowieckie,00-745
Warsaw,school,Prince Józef Poniatowski Fifth Secondary Comprehensive School,"Nowolipie 8, 00-150 Warszawa, Poland",52.24453459999999,20.9952926,4.4,55,Województwo mazowieckie,00-150
Warsaw,school,WBS - Polsko-Niemiecka Szkoła Spotkań i Dialogu im. Willy’ego Brandta,"Św. Urszuli Ledóchowskiej 3, 02-972 Warszawa, Poland",52.157731,21.0691614,3.7,46,Województwo mazowieckie,02-972
Warsaw,school,Kanadyjskie Przedszkole w Warszawie,"Ignacego Krasickiego 53, 02-608 Warszawa, Poland",52.1959212,21.0191246,4.5,21,Województwo mazowieckie,02-608
Warsaw,school,Warsaw School of Economics,"al. Niepodległości 162, 02-554 Warszawa, Poland",52.2089374,21.0087369,3.7,489,Województwo mazowieckie,02-554
Warsaw,school,Thames British School (Mokotów High School Campus),"Domaniewska 50, 02-672 Warszawa, Poland",52.1836762,20.9953747,4.1,30,Województwo mazowieckie,02-672
Warsaw,school,Niepubliczna Szkoła Podstawowa Warsaw Montessori School,"Szwoleżerów 4, 00-464 Warszawa, Poland",52.2165219,21.0426736,3.9,11,Województwo mazowieckie,00-464
Warsaw,school,High School T Reytana,"Wiktorska 30/32, 02-587 Warszawa, Poland",52.2001053,21.0149532,3.0,128,Województwo mazowieckie,02-587
Warsaw,school,Warsaw Film School,"Gen. Zajączka 7, 01-518 Warszawa, Poland",52.2604141,20.9920158,3.0,170,Województwo mazowieckie,00-001
Warsaw,school,XI High School Mikołaj Rej in Warsaw,"plac Stanisława Małachowskiego 1, 00-063 Warszawa, Poland",52.2387465,21.0106874,3.6,89,Województwo mazowieckie,00-063
Warsaw,school,33 Copernicus High School,"Józefa Bema 76, 01-225 Warszawa, Poland",52.2309855,20.9592626,3.6,85,Województwo mazowieckie,01-225
Warsaw,school,The Swan School Warszawa - matura międzynarodowa - studia za granicą,"Nowogrodzka 56A, 00-695 Warszawa, Poland",52.2280707,21.0065896,4.4,38,Województwo mazowieckie,00-695
Warsaw,school,Edu & More - Polish Language School for Foreigners,"Nowogrodzka 44, 00-695 Warszawa, Poland",52.228322,21.0091941,4.9,543,Województwo mazowieckie,00-695
Warsaw,school,Private High School and Middle School Leaders,"Bobrowiecka 9, 00-728 Warszawa, Poland",52.2002563,21.0443098,4.2,61,Województwo mazowieckie,00-728
Warsaw,school,Montessori City - Warsaw,"Zygmunta Słomińskiego 7, 00-001 Warszawa, Poland",52.2569957,20.9920004,5.0,3,Województwo mazowieckie,00-195
Warsaw,school,The International School,"Działkowa 34, 05-500 Józefosław, Poland",52.1067245,21.050135,3.9,7,Województwo mazowieckie,05-500
Warsaw,school,International Preschool of Warsaw,"Kalatówki 24, 02-702 Warszawa, Poland",52.1877706,21.0256956,4.5,8,Województwo mazowieckie,02-702
Warsaw,school,Warsaw University of Technology Business School,"Koszykowa 79, 02-008 Warszawa, Poland",52.223012,21.0006079,4.1,50,Województwo mazowieckie,02-008
Warsaw,school,Lauder-Morasha School Team,"Hipolita Wawelberga 10, 01-188 Warszawa, Poland",52.2360503,20.9694294,3.5,28,Województwo mazowieckie,01-188
Warsaw,school,School of Computer Science,"Józefa Lewartowskiego 17, 00-169 Warszawa, Poland",52.2491849,20.9896289,4.3,80,Województwo mazowieckie,00-169
Warsaw,school,International Trilingual School of Warsaw (ITSW) Trójjęzyczny żłobek i przedszkole,"Jana Styki 17/19, 03-928 Warszawa, Poland",52.2339418,21.0570237,4.6,11,Województwo mazowieckie,03-928
Warsaw,school,University of Economics and Human Sciences,"Okopowa 59, 01-043 Warszawa, Poland",52.2503591,20.9792862,2.8,630,Województwo mazowieckie,01-043
Warsaw,school,Bednarska Primary School,"Kawalerii 5, 00-468 Warszawa, Poland",52.2175732,21.0395936,3.9,19,Województwo mazowieckie,00-468
Warsaw,school,International Trilingual School of Warsaw (ITSW) Trójjęzyczny żłobek i przedszkole językowe,"Karowa 14/16, 00-324 Warszawa, Poland",52.2428076,21.0178528,4.3,16,Województwo mazowieckie,00-324
Warsaw,school,British School Warszawa Ochota,"Białobrzeska 4, 02-380 Warszawa, Poland",52.2081076,20.9692681,5.0,45,Województwo mazowieckie,02-380
Warsaw,school,Cambridge School of English,"Widok 10/LU1, 00-023 Warszawa, Poland",52.2314677,21.0148535,4.2,60,Województwo mazowieckie,00-023
Warsaw,school,Szkoła Języka Polskiego Together,"Nowogrodzka 47A/3 piętro, 00-695 Warszawa, Poland",52.2277267,21.0082358,4.3,361,Województwo mazowieckie,00-695
Warsaw,school,Language School LINGUA NOVA,"Wspólna 41, 00-519 Warszawa, Poland",52.22697789999999,21.0141679,4.9,301,Województwo mazowieckie,00-519
Warsaw,school,VII High School. Słowacki,"Wawelska 46, 02-067 Warszawa, Poland",52.2170198,20.9959998,4.4,88,Województwo mazowieckie,02-064
Warsaw,school,Jan Zamoyski High School No. XVIII,"Smolna 30, 00-375 Warszawa, Poland",52.2332979,21.0233058,3.6,94,Województwo mazowieckie,00-375
Warsaw,school,Casa dei Bambini Warsaw Montessori,"Badowska 19, 00-752 Warszawa, Poland",52.208684,21.039523,4.8,17,Województwo mazowieckie,00-752
Warsaw,school,The Academy of Fine Arts,"Krakowskie Przedmieście 5, Krakowskie Przedmieście 5, 00-068 Warszawa, Poland",52.2394019,21.0150792,4.7,108,Województwo mazowieckie,03
Kraków,restaurant,Szara Resto&Bar,"Rynek Główny 6, 31-042 Kraków, Poland",50.0610653,19.9385508,4.3,1008,Województwo małopolskie,31-042
Kraków,restaurant,Szalone Widelce,"Szpitalna 40, 31-024 Kraków, Poland",50.0643181,19.942157,4.6,8387,Województwo małopolskie,31-024
Kraków,restaurant,Kuchnia u Doroty,"Augustiańska 4, 31-064 Kraków, Poland",50.0506239,19.9412377,4.6,8803,Województwo małopolskie,31-064
Kraków,restaurant,Amalia Steak & Fish,"Rynek Główny 42, 31-013 Kraków, Poland",50.06252,19.93825,4.3,834,Województwo małopolskie,33-332
Kraków,restaurant,Sioux,"Rynek Główny 22, 31-008 Kraków, Poland",50.0610008,19.9361075,4.6,7814,Województwo małopolskie,31-008
Kraków,restaurant,Restauracja Smakołyki,"Floriana Straszewskiego 28, 31-113 Kraków, Poland",50.0614836,19.931728,4.6,7730,Województwo małopolskie,31-113
Kraków,restaurant,Chłopskie Jadło,"Grodzka 9, 31-006 Kraków, Poland",50.05980760000001,19.9376468,4.2,3631,Województwo małopolskie,31-006
Kraków,restaurant,Restauracja The Piano Rouge,"Rynek Główny 46, 31-017 Kraków, Poland",50.062256,19.9388943,4.3,1583,Województwo małopolskie,31-017
Kraków,restaurant,Awiw Restauracja,"Szeroka 13, 31-053 Kraków, Poland",50.0525321,19.9483775,4.3,1394,Województwo małopolskie,31-053
Kraków,restaurant,Restauracja Polonia,"Pawia 2, Basztowa 25, 31-156 Kraków, Poland",50.065038,19.9446989,4.7,589,Województwo małopolskie,31-156
Kraków,restaurant,Stare Mury - restauracja Kraków,"Pijarska 21, 31-015 Kraków, Poland",50.064619,19.9419055,4.2,791,Województwo małopolskie,31-015
Kraków,restaurant,Smak,"Karmelicka 10, 33-128 Kraków, Poland",50.0640365,19.9321765,4.6,2147,Województwo małopolskie,31-128
Kraków,restaurant,Warsztat Restaurant & Café,"Bożego Ciała 1, 31-054 Kraków, Poland",50.0522149,19.942673,4.5,5333,Województwo małopolskie,31-054
Kraków,restaurant,Chopin Restaurant,"Rynek Główny 39, 31-013 Kraków, Poland",50.0626895,19.937606,3.5,1681,Województwo małopolskie,31-013
Kraków,restaurant,Hawełka,"Rynek Główny 34, 31-010 Kraków, Poland",50.06248,19.936336,4.1,1630,Województwo małopolskie,31-010
Kraków,restaurant,Restauracja Wentzl,"Rynek Główny 19, 31-008 Kraków, Poland",50.060716,19.936908,3.7,583,Województwo małopolskie,31-008
Kraków,restaurant,Ratuszowa Cafe,"Rynek Główny 1, 31-042 Kraków, Poland",50.0613845,19.93636,4.1,1348,Województwo małopolskie,31-042
Kraków,restaurant,Zielone Tarasy,"Aleja Juliusza Słowackiego 64, 31-000 Kraków, Poland",50.0738666,19.935181,4.5,1335,Województwo małopolskie,30-004
Kraków,restaurant,Domowe Przysmaki,"Sławkowska 24A, 31-014 Kraków, Poland",50.06470909999999,19.9381645,4.5,3160,Województwo małopolskie,31-014
Kraków,restaurant,Czerwone Korale,"Mikołajska 14, 31-027 Kraków, Poland",50.06148,19.941454,4.4,1486,Województwo małopolskie,31-027
Kraków,restaurant,Czarna Kaczka/ Black Duck,"Poselska 22, 31-002 Kraków, Poland",50.0582485,19.9391763,4.7,6541,Województwo małopolskie,31-002
Kraków,restaurant,Starka | Restaurant & Vodkas,"Józefa 14, 31-056 Kraków, Poland",50.0506783,19.9443417,4.7,6621,Województwo małopolskie,31-056
Kraków,restaurant,Kogel Mogel,"Sienna 12, 31-041 Kraków, Poland",50.0606555,19.940787,4.5,3244,Województwo małopolskie,31-041
Kraków,restaurant,Morskie Oko,"plac Szczepański 8, 31-011 Kraków, Poland",50.0636495,19.936141,4.6,8112,Województwo małopolskie,31-011
Kraków,restaurant,Restauracja Polska | Polish Restaurant,"Beera Meiselsa 22, 31-063 Kraków, Poland",50.0514563,19.9441958,4.5,2467,Województwo małopolskie,31-063
Kraków,restaurant,Pod Aniołami Restaurant,"Grodzka 35, 31-001 Kraków, Poland",50.0583,19.937727,4.5,2366,Województwo małopolskie,31-001
Kraków,restaurant,Farina Restaurant,"św. Marka 16, 31-018 Kraków, Poland",50.0639939,19.9394053,4.7,1353,Województwo małopolskie,31-018
Kraków,restaurant,Restauracja Sąsiedzi,"Miodowa 25, 31-055 Kraków, Poland",50.0527778,19.9452778,4.5,1668,Województwo małopolskie,31-055
Kraków,restaurant,Biała Róża,"Floriana Straszewskiego 16, 31-101 Kraków, Poland",50.0579165,19.9332685,4.6,1213,Województwo małopolskie,31-101
Kraków,restaurant,Gąska Polish Restaurant,"1, Bolesława Limanowskiego, 30-551 Kraków, Poland",50.0450739,19.9502909,4.6,2570,Województwo małopolskie,30-551
Kraków,restaurant,Pierwszy Stopień Restaurant,"Krakowska 17, 31-062 Kraków, Poland",50.04999249999999,19.9425796,4.7,3215,Województwo małopolskie,31-062
Kraków,restaurant,Amarylis Restaurant,"Józefa Dietla 60, 30-039 Kraków, Poland",50.0543859,19.9432126,4.8,593,Województwo małopolskie,31-039
Kraków,restaurant,Zalewajka,"Wąska 2, 31-057 Kraków, Poland",50.0509947,19.9476423,4.6,1827,Województwo małopolskie,31-057
Kraków,restaurant,Szara Gęś w Kuchni Restaurant,"Rynek Główny 17, 31-008 Kraków, Poland",50.060491,19.937158,4.6,2212,Województwo małopolskie,31-008
Kraków,restaurant,Pod Baranem,"Świętej Gertrudy 21, 31-048 Kraków, Poland",50.0548212,19.9401237,4.6,2245,Województwo małopolskie,31-048
Kraków,restaurant,Karakter,"Brzozowa 17, 31-050 Kraków, Poland",50.053287,19.9458959,4.6,4325,Województwo małopolskie,31-050
Kraków,restaurant,Boscaiola Restaurant,"Szewska 10, 31-009 Kraków, Poland",50.06249589999999,19.9347704,4.5,5468,Województwo małopolskie,31-009
Kraków,restaurant,Restauracja Cyrano de Bergerac,"Sławkowska 26, 31-014 Kraków, Poland",50.065,19.9383333,4.7,1000,Województwo małopolskie,31-014
Kraków,restaurant,Old Town Restaurant and Wine Bar,"Bracka 6, 31-005 Kraków, Poland",50.0601897,19.9363463,4.7,2159,Województwo małopolskie,31-005
Kraków,restaurant,Stodoła,"Floriańska 47, 31-019 Kraków, Poland",50.06407919999999,19.9413146,4.5,2662,Województwo małopolskie,31-019
Kraków,restaurant,KRAK-REST,"Grodzka 43, 31-001 Kraków, Poland",50.0577736,19.9378936,4.2,2717,Województwo małopolskie,31-001
Kraków,restaurant,Glonojad,"plac Jana Matejki 2, 31-157 Kraków, Poland",50.0661709,19.9424012,4.5,3453,Województwo małopolskie,31-157
Kraków,restaurant,Przystanek Pierogarnia,"Bonerowska 14, 31-030 Kraków, Poland",50.0592183,19.9473655,4.6,1916,Województwo małopolskie,31-029
Kraków,restaurant,Bistro Bene by Tomasz Leśniak,"Świętego Krzyża 17, 31-023 Kraków, Poland",50.0623478,19.9427724,4.5,1924,Województwo małopolskie,31-023
Kraków,restaurant,Tradycyjne Polskie Smaki Kuchnia polska Kraków,"Świętego Tomasza 5, 31-014 Kraków, Poland",50.063731,19.9366285,4.5,2662,Województwo małopolskie,31-014
Kraków,restaurant,Fab Fusion Restaurant & Bar,"Berka Joselewicza 17, 31-031 Kraków, Poland",50.05491,19.947642,4.6,403,Województwo małopolskie,31-031
Kraków,restaurant,Hard Rock Cafe,"Mariacki Square 9, 31-042 Kraków, Poland",50.0614436,19.9387722,4.3,8985,Województwo małopolskie,33-332
Kraków,restaurant,Restauracja Royal India Kraków,"Mikołajska 3, 33-332 Kraków, Poland",50.0612624,19.9412189,4.8,547,Województwo małopolskie,31-027
Kraków,restaurant,W Starej Kuchni Restaurant,"Świętego Tomasza 8, 31-014 Kraków, Poland",50.0638616,19.9367492,4.5,2920,Województwo małopolskie,31-014
Kraków,restaurant,Pod Wawelem Kompania Kuflowa,"Świętej Gertrudy 26/29, 31-048 Kraków, Poland",50.054876,19.939403,4.4,24813,Województwo małopolskie,31-048
Kraków,restaurant,Kolanko No 6 Restaurant,"Józefa 17, 31-056 Kraków, Poland",50.0509294,19.9461595,4.6,7792,Województwo małopolskie,31-056
Kraków,restaurant,Od Jajka Do Jabłka,"wejście z parkingu hotelowego, Świętej Gertrudy 7, 31-046 Kraków, Poland",50.05792779999999,19.9410277,4.8,1072,Województwo małopolskie,31-046
Kraków,restaurant,Jarema Restaurant,"plac Jana Matejki 5, 31-157 Kraków, Poland",50.0664354,19.9425637,4.3,1080,Województwo małopolskie,31-157
Kraków,restaurant,Milkbar Tomasza,"Świętego Tomasza 24, 33-332 Kraków, Poland",50.0624251,19.9416218,4.7,5212,Województwo małopolskie,31-027
Kraków,restaurant,Padre Restaurant,"Wiślna 11, 31-007 Kraków, Poland",50.06016109999999,19.9341943,4.7,1200,Województwo małopolskie,31-007
Kraków,restaurant,Hamsa,"Szeroka 2, 31-053 Kraków, Poland",50.0531819,19.947628,4.5,5383,Województwo małopolskie,31-053
Kraków,restaurant,Veganic Restaurant,"Karmelicka 34, 31-124 Kraków, Poland",50.0660585,19.9297321,4.6,3389,Województwo małopolskie,31-128
Kraków,restaurant,Restaurant & Cafe Cafe Art,"Rynek Główny 23, 31-008 Kraków, Poland",50.06105669999999,19.9360223,3.6,1029,Województwo małopolskie,31-008
Kraków,restaurant,Krakowskie Klimaty,"aleja Ignacego Daszyńskiego 5, 31-500 Kraków, Poland",50.058303,19.9496925,4.3,396,Województwo małopolskie,31-537
Kraków,restaurant,Albertina Restaurant & Wine,"Dominikańska 3, 31-043 Kraków, Poland",50.0589948,19.9394673,4.6,706,Województwo małopolskie,31-043
Kraków,museum,HistoryLand,"MTP ul. Głogowska 14, Hala 3A go 3, 60-734 Poznań, Poland",52.4062409,16.9113798,4.6,2272,Województwo wielkopolskie,60-810
Kraków,museum,Museum of Polish Army AK,"Wita Stwosza 12, 31-511 Kraków, Poland",50.0722252,19.9484811,4.6,2217,Województwo małopolskie,31-404
Kraków,museum,Rynek Underground Museum,"Rynek Główny 1, 31-042 Kraków, Poland",50.061934,19.93777,4.5,8358,Województwo małopolskie,31-042
Kraków,museum,Museum of the Wielkopolska Uprising of 1918-1919,"Stary Rynek 3, 61-772 Poznań, Poland",52.4082734,16.9331544,4.7,604,Województwo wielkopolskie,61-772
Kraków,museum,Muzeum Lotnictwa Polskiego,"al. Jana Pawła II 39, 31-864 Kraków, Poland",50.0769631,19.9897622,4.7,14955,Województwo małopolskie,31-864
Kraków,museum,Historical Museum of the City of Kraków,"Rynek Główny 35, 31-011 Kraków, Poland",50.0626812,19.9365176,4.6,4329,Województwo małopolskie,31-011
Kraków,museum,Museum of Contemporary Art in Krakow MOCAK,"Lipowa 4, 30-702 Kraków, Poland",50.04762419999999,19.9615335,4.5,5851,Województwo małopolskie,30-702
Kraków,museum,National Museum in Kraków,"al. 3 Maja 1, 30-062 Kraków, Poland",50.06006619999999,19.9238774,4.5,11238,Województwo małopolskie,30-062
Kraków,museum,Kraków Pinball Museum,"Stradomska 15, 31-068 Kraków, Poland",50.0528167,19.9400761,4.8,3051,Województwo małopolskie,31-068
Kraków,museum,Muzeum Gier Wideo - Krakow Arcade Museum,"Centralna 41a, 31-586 Kraków, Poland",50.06808969999999,20.0146796,4.8,3341,Województwo małopolskie,31-586
Kraków,museum,Chocolate Museum,"Wrocławska 12, 61-838 Poznań, Poland",52.4064823,16.9328904,4.4,871,Województwo wielkopolskie,61-838
Kraków,museum,Czartoryski Museum,"Pijarska 15, 31-015 Kraków, Poland",50.0646918,19.9400993,4.8,7109,Województwo małopolskie,33-332
Kraków,museum,Galicia Jewish Museum,"Dajwór 18, 31-052 Kraków, Poland",50.050829,19.9496382,4.4,1671,Województwo małopolskie,33-332
Kraków,museum,Be Happy Museum Kraków,"Karmelicka 3, 31-133 Kraków, Poland",50.0637874,19.9328185,4.5,1157,Województwo małopolskie,31-133
Kraków,museum,muWi Stained Glass Museum,"Aleja Zygmunta Krasińskiego 23, 31-111 Kraków, Poland",50.0589935,19.9257466,4.8,993,Województwo małopolskie,31-111
Kraków,museum,Seweryn Udziela Ethnographic Museum in Krakow,"plac Wolnica 1, 31-060 Kraków, Poland",50.0485902,19.9434773,4.7,989,Województwo małopolskie,31-062
Kraków,museum,Muzeum Farmacji Collegium Medicum Uniwersytetu Jagiellońskiego,"Floriańska 25, 31-019 Kraków, Poland",50.063227,19.9402599,4.7,693,Województwo małopolskie,33-332
Kraków,museum,Muzeum Iluzji Kraków / Museum of Illusions Kraków,"Floriana Straszewskiego 15, 31-101 Kraków, Poland",50.0576644,19.9335116,4.6,4626,Województwo małopolskie,31-101
Kraków,museum,MNK Sukiennice,"Rynek Główny 3, 31-042 Kraków, Poland",50.0615991,19.9373312,4.7,12812,Województwo małopolskie,31-042
Kraków,museum,Museum of Pharmacy,"al. Marcinkowskiego 11, 61-827 Poznań, Poland",52.407472,16.9292772,4.5,47,Województwo wielkopolskie,61-827
Kraków,museum,WOMAI Kraków Centrum Nauki i Zmysłów,"Pawia 34, 31-154 Kraków, Poland",50.0694807,19.9447541,4.9,2905,Województwo małopolskie,31-154
Kraków,museum,Bricks & Figs,"Jana Henryka Dąbrowskiego 20, 30-532 Kraków, Poland",50.0447929,19.9599731,4.9,1419,Województwo małopolskie,30-532
Kraków,museum,Muzeum Uniwersytetu Jagiellońskiego Collegium Maius,"Jagiellońska 15, 31-010 Kraków, Poland",50.0615639,19.9339309,4.7,885,Województwo małopolskie,31-010
Kraków,museum,Emeryk Hutten-Czapski Museum,"Marszałka Józefa Piłsudskiego 12, 31-109 Kraków, Poland",50.0600312,19.9300036,4.8,634,Województwo małopolskie,31-109
Kraków,museum,Szołayski House National Museum,"plac Szczepański 9, 31-011 Kraków, Poland",50.0634015,19.9359796,4.6,480,Województwo małopolskie,31-011
Kraków,museum,Muzeum Tortur - atrakcja historyczna Kraków,"Floriańska 10, 31-019 Kraków, Poland",50.062768,19.9396285,4.9,831,Województwo małopolskie,31-019
Kraków,museum,Wawel Royal Castle-State Art Collection,"Wawel 5, 31-001 Kraków, Poland",50.0541115,19.935423,4.7,149998,Województwo małopolskie,33-332
Kraków,museum,Muzeum Nowej Huty,"Osiedle Centrum E 1, 31-934 Kraków, Poland",50.070108,20.0412795,4.3,1357,Województwo małopolskie,31-934
Kraków,museum,EUROPEUM Centre for European Culture,"plac Generała Władysława Sikorskiego 6, 31-115 Kraków, Poland",50.0614928,19.9290814,4.6,579,Województwo małopolskie,31-115
Kraków,museum,The Archaeological Museum in Krakow,"Senacka 3, 31-002 Kraków, Poland",50.0576552,19.9366806,4.6,2417,Województwo małopolskie,31-002
Kraków,museum,Museum of the Living Butterfly,"Grodzka 48/2, 31-044 Kraków, Poland",50.0575653,19.9384465,4.0,2868,Województwo małopolskie,31-044
Kraków,museum,Oskar Schindler's Enamel Factory,"Lipowa 4, 30-702 Kraków, Poland",50.0474296,19.9615736,4.5,22968,Województwo małopolskie,30-702
Kraków,museum,Pomorska Street Museum,"Poland, Pomorska 2, 30-039 Kraków, Poland",50.0705525,19.9248974,4.4,537,Województwo małopolskie,30-045
Kraków,museum,Live Bagel Museum of Kraków,"Ignacego Paderewskiego 4, 31-157 Kraków, Poland",50.0666362,19.9408286,4.8,1687,Województwo małopolskie,31-157
Kraków,museum,Muzeum Inżynierii i Techniki,"Św. Wawrzyńca 15, 31-060 Kraków, Poland",50.049764,19.946822,4.3,3973,Województwo małopolskie,31-060
Kraków,museum,Lost Souls Alley,"Floriańska 6, 31-021 Kraków, Poland",50.0626191,19.9395255,4.7,3602,Województwo małopolskie,31-021
Kraków,museum,Polonia Wax Museum,"Floriańska 32, 31-150 Kraków, Poland",50.06409499999999,19.9406449,3.6,1430,Województwo małopolskie,31-021
Kraków,museum,Museum of Podgórze,"Powstańców Wielkopolskich 1, 30-553 Kraków, Poland",50.0425784,19.9610096,4.7,535,Województwo małopolskie,30-553
Kraków,museum,The Jan Matejko House | National Museum,"Floriańska 41, 31-019 Kraków, Poland",50.0638949,19.9408229,4.6,1082,Województwo małopolskie,31-019
Kraków,museum,Old Synagogue,"Szeroka 24, 31-053 Kraków, Poland",50.0514597,19.9485936,4.4,4281,Województwo małopolskie,31-053
Kraków,museum,Vodka Factory,"Fabryczna 13, 31-553 Kraków, Poland",50.06251959999999,19.9735056,4.8,244,Województwo małopolskie,31-553
Kraków,museum,National Museum - Palace of Bishop Erasmus Ciolek,"Kanonicza 17, 31-002 Kraków, Poland",50.056329,19.9371483,4.7,608,Województwo małopolskie,31-002
Kraków,museum,Museum Kata Kacianora,"Rynek Główny 29, 31-010 Kraków, Poland",50.06187389999999,19.9357171,4.3,338,Województwo małopolskie,31-010
Kraków,museum,"Regionalne Muzeum Młodej Polski ""Rydlówka""","Włodzimierza Tetmajera 28, 31-352 Kraków, Poland",50.0877405,19.8780372,4.5,684,Województwo małopolskie,33-332
Kraków,museum,Muzeum Fotografii w Krakowie - MuFo Rakowicka,"Rakowicka 22A, 31-510 Kraków, Poland",50.0702996,19.9536657,4.7,543,Województwo małopolskie,31-510
Kraków,museum,Józef Mehoffer House,"Krupnicza 26, 31-123 Kraków, Poland",50.0633766,19.9283493,4.6,834,Województwo małopolskie,31-123
Kraków,museum,"Wheels & Heels - niesamowite muzeum, wystawa lalek i resoraków","Kupa 6, 31-057 Kraków, Poland",50.0521511,19.9461596,5.0,1088,Województwo małopolskie,31-057
Kraków,museum,Muzeum Archidiecezjalne w Krakowie,"Kanonicza 19, 31-002 Kraków, Poland",50.0559817,19.9371488,4.5,271,Województwo małopolskie,31-002
Kraków,museum,National Museum - Czartoryski Library,"św. Marka 17, 31-018 Kraków, Poland",50.063797,19.9396279,4.5,56,Województwo małopolskie,31-018
Kraków,museum,Muzeum Przyrodnicze Instytutu Systematyki i Ewolucji Zwierząt PAN w Krakowie,"Świętego Sebastiana 9, 31-049 Kraków, Poland",50.0555515,19.9415318,4.5,256,Województwo małopolskie,31-049
Kraków,museum,Czartoryski Princes Museum - Arsenał,"Pijarska 8, 31-015 Kraków, Poland",50.0650229,19.9405406,4.7,153,Województwo małopolskie,31-015
Kraków,museum,Krzysztofory Palace,"Rynek Główny 35, 31-011 Kraków, Poland",50.0626956,19.9366334,4.7,509,Województwo małopolskie,31-011
Kraków,museum,Tadeusz Kantor's Centre for Documentation Cricoteka,"Nadwiślańska 2/4, 30-527 Kraków, Poland",50.04713470000001,19.9510774,4.5,1084,Województwo małopolskie,30-527
Kraków,museum,Geological Museum,"Senacka 3, 31-002 Kraków, Poland",50.0575434,19.9367075,4.9,545,Województwo małopolskie,31-002
Kraków,museum,Muzeum Elektroniki Kraków Konsole i Komputery,"Wrocławska 8, 30-006 Kraków, Poland",50.075101,19.9331256,5.0,393,Województwo małopolskie,30-006
Kraków,museum,Muzeum Banksy,"Berka Joselewicza 21, 31-031 Kraków, Poland",50.0550838,19.9479229,4.7,960,Województwo małopolskie,31-031
Kraków,museum,Celestat,"Lubicz 16, 31-504 Kraków, Poland",50.0653331,19.9493198,4.5,468,Województwo małopolskie,31-504
Kraków,museum,Anatomy Museum of the Jagiellonian University,"Mikołaja Kopernika 12, 31-034 Kraków, Poland",50.0616113,19.9462219,4.7,255,Województwo małopolskie,31-034
Kraków,museum,Kościuszko Mound,"al. Waszyngtona 1, 30-204 Kraków, Poland",50.054946,19.8927057,4.6,21879,Województwo małopolskie,30-204
Kraków,museum,Historia Krakowa House of Attractions,"Floriańska 6, 31-021 Kraków, Poland",50.0626212,19.9392345,4.8,380,Województwo małopolskie,31-021
Kraków,park,Henryk Jordan Park,"al. 3 Maja 11, 30-059 Kraków, Poland",50.0634144,19.9162589,4.8,12883,Województwo małopolskie,30-059
Kraków,park,Park im.Wojciecha Bednarskiego w Podgórzu,"Jana Zamoyskiego, 33-332 Kraków, Poland",50.0418562,19.9497519,4.8,4674,Województwo małopolskie,33-332
Kraków,park,Bielańsko-Tyniecki Landscape Park,"Kraków, Poland",50.05587569999999,19.8500192,4.7,10449,Lesser Poland Voivodeship,30
Kraków,park,Polish Airmen Park,"31-571 Kraków, Poland",50.0702676,19.993358,4.7,9445,Lesser Poland Voivodeship,30
Kraków,park,Krowoderski Park,"Jana Palacha 7, Kraków, Poland",50.0887558,19.92199,4.7,4596,Województwo małopolskie,30
Kraków,park,Kosciuszko Park,"31-221 Kraków, Poland",50.0932756,19.9401704,4.7,2831,Województwo małopolskie,31-221
Kraków,park,Błonia Park,"33-332 Kraków, Poland",50.0597699,19.9095228,4.7,7171,Lesser Poland Voivodeship,30
Kraków,park,Planty,"31-041 Kraków, Poland",50.0599245,19.9414307,4.7,21645,Województwo małopolskie,31-041
Kraków,park,Witkowice Park,"31-234 Kraków, Poland",50.1093841,19.9548925,4.7,756,Województwo małopolskie,31-242
Kraków,park,Reduta Park,"30-001, Kraków, Poland",50.0957877,19.9864992,4.6,1992,Województwo małopolskie,31-421
Kraków,park,Park Strzelecki,"Zygmunta Augusta 7, 31-505 Kraków, Poland",50.0658909,19.9501185,4.5,2076,Województwo małopolskie,31-504
Kraków,park,Zakrzówek Park,"Wyłom, 30-373 Kraków, Poland",50.035869,19.9120736,4.8,3662,Województwo małopolskie,30-373
Kraków,park,Zalew Nowohucki | Park,"Nowa Huta, Bulwarowa, Kraków, Poland",50.07903899999999,20.0511046,4.8,3836,Województwo małopolskie,31-751
Kraków,park,Park Tysiąclecia w Krakowie,"31-600 Kraków, Poland",50.0908409,19.9965723,4.6,3086,Województwo małopolskie,31-610
Kraków,park,Stanisław Wyspiański Park,"Władysława Łokietka, 30-962 Kraków, Poland",50.0858333,19.9208333,4.7,841,Województwo małopolskie,30
Kraków,park,Park Dębnicki w Krakowie,"Praska 22, 30-322 Kraków, Poland",50.0497457,19.9170385,4.7,1895,Województwo małopolskie,30-323
Kraków,park,Decius Park,"Królowej Jadwigi, 30-218 Kraków, Poland",50.0657754,19.8719874,4.7,2992,Województwo małopolskie,30-218
Kraków,park,Park A. and E. Jerzmanowski,"Górników 29, 30-808 Kraków, Poland",50.01798849999999,19.995086,4.7,2471,Województwo małopolskie,30-808
Kraków,park,Bagry Wielkie City Park,"Kacza 35, 30-735 Kraków, Poland",50.03488549999999,19.9909431,4.6,461,Województwo małopolskie,30-735
Kraków,park,Planty im. Floriana Nowackiego,"plac Emila Serkowskiego 9, 30-508 Kraków, Poland",50.0436847,19.9425748,4.7,1852,Województwo małopolskie,30-508
Kraków,park,Skałki Twardowskiego w Krakowie,"30-001 Kraków, Poland",50.0409886,19.903969,4.8,3862,Województwo małopolskie,30
Kraków,park,Park Czyżyny w Krakowie,"31-866 Kraków, Poland",50.0793443,20.000888,4.7,513,Lesser Poland Voivodeship,30
Kraków,park,Park. Żeromskiego,"Kraków, Poland",50.0662978,20.0431559,4.7,1021,Województwo małopolskie,31-913
Kraków,park,Wisława Szymborska Park,"Karmelicka 24b, 31-133 Kraków, Poland",50.0652881,19.929146,4.8,372,Województwo małopolskie,31-124
Kraków,park,Maciek and Dorota Park,"Wichrowa 23, 30-438 Kraków, Poland",50.00220119999999,19.9120489,4.7,1434,Województwo małopolskie,30-438
Kraków,park,Dąbie Park,"Ofiar Dąbia, Kraków, Poland",50.0561483,19.9791603,4.7,414,Województwo małopolskie,30
Kraków,park,Kurdwanów Park,"30-611 Kraków, Poland",50.01035779999999,19.9553444,4.6,1496,Województwo małopolskie,30-612
Kraków,park,Botanical Garden of the Jagiellonian University,"Mikołaja Kopernika 27, 31-501 Kraków, Poland",50.0635669,19.9555311,4.7,12274,Województwo małopolskie,31-501
Kraków,park,Park Wodny w Krakowie S.A.,"Dobrego Pasterza 126, 31-416 Kraków, Poland",50.0892456,19.982809,4.2,17611,Województwo małopolskie,31-416
Kraków,park,Park Kieszonkowy - Ogród Kwietny,"Piasek Północ, 31-139 Kraków, Poland",50.0705378,19.9317252,4.5,102,Województwo małopolskie,31-139
Kraków,park,Park Zaczarowanej Dorożki w Krakowie,"Dominikanów 30, 30-962 Kraków, Poland",50.086793,19.966203,4.7,2509,Województwo małopolskie,31-416
Kraków,park,Park Krakowski im. Marka Grechuty,"Czarnowiejska, 30-001 Kraków, Poland",50.06803069999999,19.9244053,4.7,380,Województwo małopolskie,30
Kraków,park,Park Duchacki,"Malborska, 30-306 Kraków, Poland",50.0214929,19.9653089,4.7,620,Województwo małopolskie,30-624
Kraków,park,House of Attractions: Atrakcje dla dzieci i dorosłych,"Grodzka 2, 31-006 Kraków, Poland",50.060058,19.93802,4.8,5503,Województwo małopolskie,31-006
Kraków,park,Park Lilli Wenedy,"Bieżanowska 100, 30-826 Kraków, Poland",50.0205282,20.0027293,4.5,595,Lesser Poland Voivodeship,30
Kraków,park,Aleksandra Park,"30-001 Kraków, Poland",50.0121744,20.0141302,4.3,989,Lesser Poland Voivodeship,30
Kraków,park,River Garden Park Płaszów,"30-718 Kraków, Poland",50.0475157,19.9935535,4.6,521,Województwo małopolskie,30-718
Kraków,park,Park Szwedzki w Krakowie,"31-974 Kraków, Poland",50.0745095,20.0438101,4.4,747,Województwo małopolskie,31-974
Kraków,park,Park przy Stawie Płaszowskim,"30-720 Kraków, Poland",50.04198270000001,19.971514,4.8,42,Województwo małopolskie,33-332
Kraków,park,Park Stacja Wisła,"Kraków, Poland",50.0506783,19.9592366,4.6,553,Województwo małopolskie,33-332
Kraków,park,Park kieszonkowy „Ogród nad Sudołem”,"Naczelna 23, 31-416 Kraków, Poland",50.09043860000001,19.9684384,4.8,435,Województwo małopolskie,31-416
Kraków,park,Park przy os. Złotego Wieku,"30-001 Kraków, Poland",50.0990489,20.0003508,4.8,302,Województwo małopolskie,31-618
Kraków,park,Park Tetmajera,"Włodzimierza Tetmajera, 31-352 Kraków, Poland",50.0931338,19.8651664,4.5,316,Województwo małopolskie,31-352
Kraków,park,Park rzeczny Wilga II (Borsucza),"Cegielniana, 30-404 Kraków, Poland",50.0275891,19.9273492,4.8,50,Województwo małopolskie,30-408
Kraków,park,Kraków Zoo,"aleja Kasy Oszczędności Miasta Krakowa 14, 30-232 Kraków, Poland",50.05515279999999,19.8540181,4.6,25324,Województwo małopolskie,30-249
Kraków,park,Bulwary Wisły,"bulwar Czerwieński, 33-332 Kraków, Poland",50.05504200000001,19.9315881,4.8,621,Województwo małopolskie,33-332
Kraków,park,Ojcowski National Park,"Ojców 9, 32-045 Sułoszowa, Poland",50.2070516,19.8178762,4.8,24277,Lesser Poland Voivodeship,33
Kraków,park,The Bird Park,"Stefana Bobrowskiego 9, 31-552 Kraków, Poland",50.0586748,19.9669899,4.8,93,Województwo małopolskie,31-552
Kraków,park,Park Royal Mlynowka,"Zygmunta Starego, 30-198 Kraków, Poland",50.0798146,19.8562783,4.6,281,Województwo małopolskie,30-198
Kraków,park,Park Zaczarowanej Dorożki,"Unnamed Road, Kraków, Poland",50.0867543,19.9663659,4.8,376,Województwo małopolskie,31-421
Kraków,park,Park przy Grottgera,"aleja Artura Grottgera 16, 30-035 Kraków, Poland",50.0737082,19.9268751,4.8,70,Województwo małopolskie,30-035
Kraków,park,Park Solvay,"Unnamed Road,30-001, Kraków, Poland",50.0156319,19.9263841,4.5,143,Lesser Poland Voivodeship,30
Kraków,park,Drwinka River Park,"Drwinka, Kraków, Poland",50.0148326,19.9799339,4.3,219,Województwo małopolskie,30
Kraków,park,Park Przy Śluzie,"Półkole 9, 31-564 Kraków, Poland",50.0615967,19.9829436,4.7,86,Województwo małopolskie,31-564
Kraków,park,Ogród Kasztanowy Krakowian,"Rakowicka 20, 30-001 Kraków, Poland",50.0698526,19.9499884,4.7,109,Województwo małopolskie,31-511
Kraków,park,Dębowy Ogród Krakowian Dąb Celarowski,"31-414 Kraków, Poland",50.0828198,19.9557412,4.9,62,Województwo małopolskie,31-414
Kraków,park,Park Wola w Krakowie,"aleja Kasztanowa 1, 30-227 Kraków, Poland",50.06438869999999,19.8696708,4.1,179,Województwo małopolskie,30-227
Kraków,park,Borkowski Forest,"Żywiecka, 30-962 Kraków, Poland",50.011365,19.9143548,4.5,735,Lesser Poland Voivodeship,30
Kraków,park,River Park Wilga in Kraków,"Jana Brożka, 30-347 Kraków, Poland",50.0312981,19.9290333,4.5,48,Województwo małopolskie,30-347
Kraków,park,Park Jalu Kurka,"Szlak 73A, 31-153 Kraków, Poland",50.0696407,19.9421918,4.2,57,Województwo małopolskie,31-153
Kraków,hospital,John Paul II Hospital,"Prądnicka 80, 31-202 Kraków, Poland",50.0896875,19.9369007,4.0,322,Województwo małopolskie,31-202
Kraków,hospital,SP ZOZ Szpital Uniwersytecki w Krakowie,"Macieja Jakubowskiego 2, 30-688 Kraków, Poland",50.00986169999999,20.0025854,3.0,720,Województwo małopolskie,30-688
Kraków,hospital,Szpital Miejski Specjalistyczny im. G. Narutowicza,"Prądnicka 35, 31-202 Kraków, Poland",50.0826358,19.9381472,2.7,647,Województwo małopolskie,31-202
Kraków,hospital,Specialist Hospital. Jozef Dietl,"Skarbowa 4, 31-121 Kraków, Poland",50.063619,19.9273626,3.1,190,Województwo małopolskie,31-121
Kraków,hospital,Specialist Hospital. J.Dietla,"Aleja Marszałka Ferdynanda Focha 33, 30-119 Kraków, Poland",50.0575596,19.9139063,3.0,143,Województwo małopolskie,30-119
Kraków,hospital,5 Military Clinical Hospital SPZOZ,"Wrocławska 1/3, 30-901 Kraków, Poland",50.075241,19.9339635,3.0,588,Województwo małopolskie,30
Kraków,hospital,Szpital Dworska®,"Dworska 1B/LU1, 30-314 Kraków, Poland",50.0460613,19.9304154,4.7,468,Województwo małopolskie,30-314
Kraków,hospital,University Children’s Hospital of Cracow,"Wielicka 265, 30-663 Kraków, Poland",50.0121267,20.0011785,3.4,689,Województwo małopolskie,30-663
Kraków,hospital,Brothers Hospitallers Hospital in Kraków,"Trynitarska 11, 31-061 Kraków, Poland",50.0474407,19.9444742,4.0,200,Województwo małopolskie,31-061
Kraków,hospital,Hospital Emergency Ward - 5 Military Hospital,"Wrocławska 1-3, 30-006 Kraków, Poland",50.0762367,19.9338884,2.4,332,Województwo małopolskie,30-006
Kraków,hospital,Szpital Specjalistyczny im. Stefana Żeromskiego SP ZOZ w Krakowie,"Osiedle Na Skarpie 66, 31-913 Kraków, Poland",50.06574999999999,20.046613,3.0,889,Województwo małopolskie,31-913
Kraków,hospital,Szpital na Klinach,"Józefa Kostrzewskiego 47, 30-437 Kraków, Poland",49.9975232,19.9068068,3.9,155,Województwo małopolskie,30-437
Kraków,hospital,Szpital Uniwersytecki - Oddział Kliniczny Położnictwa i Perinatologii,"Mikołaja Kopernika 23, 31-501 Kraków, Poland",50.063131,19.955334,4.3,211,Województwo małopolskie,31-501
Kraków,hospital,Wojewódzki Specjalistyczny Szpital Dziecięcy im. św. Ludwika w Krakowie,"Strzelecka 2, 31-503 Kraków, Poland",50.063426,19.9504535,3.4,271,Województwo małopolskie,31-503
Kraków,hospital,Hospital Emergency Ward (Hospital. Narutowicz),"Prądnicka 35, 31-202 Kraków, Poland",50.0822703,19.9386413,3.0,227,Województwo małopolskie,31-202
Kraków,hospital,Szpital Uniwersytecki w Krakowie - Wejście Główne - Budynek C,"Macieja Jakubowskiego 2, 30-688 Kraków, Poland",50.0091492,20.0013917,3.8,228,Województwo małopolskie,30-688
Kraków,hospital,Szpital Ginekologiczno-Położniczy im. Rafała Czerwiakowskiego,"Henryka Siemiradzkiego 1, 31-137 Kraków, Poland",50.0692737,19.9323777,4.0,236,Województwo małopolskie,31-137
Kraków,hospital,Szpital Bonifratrow,"Krakowska 36, 33-332 Kraków, Poland",50.0474879,19.9451419,4.7,9,Województwo małopolskie,31-061
Kraków,hospital,Kraków St. Botanical 3,"Botaniczna 3, 31-034 Kraków, Poland",50.0643519,19.9552187,2.3,19,Województwo małopolskie,31-503
Kraków,hospital,Medical Center Enel-Med,"Pawia 5, 31-154 Kraków, Poland",50.0689803,19.945439,3.8,536,Województwo małopolskie,31-154
Kraków,hospital,"Department of Cardiac Surgery and Transplantation, University of Medical Sciences","Długa 1/2, 61-848 Poznań, Poland",52.4036479,16.935726,4.3,36,Województwo wielkopolskie,61-001
Kraków,hospital,Centrum Medyczne Zwierzyniecka,"Zwierzyniecka 30/28, 60-814 Poznań, Poland",52.4091907,16.9029767,4.6,69,Województwo wielkopolskie,60-814
Kraków,hospital,Szpital św. Ludwika - Nowy Budynek,"Strzelecka 2, 31-034 Kraków, Poland",50.063199,19.950543,4.3,44,Województwo małopolskie,31-503
Kraków,hospital,NZOZ Szpital im. R. Czerwiakowskiego,"Kremerowska 11, 31-130 Kraków, Poland",50.0682145,19.9291882,3.3,62,Województwo małopolskie,31-130
Kraków,hospital,Szpital Uniwersytecki,"Mikołaja Kopernika 36, 31-501 Kraków, Poland",50.06305760000001,19.9513304,2.8,8,Województwo małopolskie,31-501
Kraków,hospital,"Oddział Kliniczny Chirurgii Ogólnej, Onkologicznej i Gastroenterologicznej | Szpital Uniwersytecki w Krakowie","Macieja Jakubowskiego 2, 30-688 Kraków, Poland",50.0090586,20.0006086,3.1,15,Województwo małopolskie,30-688
Kraków,hospital,Lądowisko Kraków-Szpital im. Jana Pawła II,"Głęboka 12, 31-215 Kraków, Poland",50.0911232,19.9366703,3.3,3,Województwo małopolskie,31-215
Kraków,hospital,Provincial Ophthalmology Hospital in Krakow,"Osiedle Na Wzgórzach 17B, 31-723 Kraków, Poland",50.09932180000001,20.0637168,3.1,164,Województwo małopolskie,31-723
Kraków,hospital,Oddział Kliniczny Neonatologii,"Mikołaja Kopernika 23, 31-501 Kraków, Poland",50.06346910000001,19.9547809,5.0,8,Województwo małopolskie,31-501
Kraków,hospital,Breast Unit (Szpital Uniwersytecki w Krakowie),"Mikołaja Kopernika 50, 30-001 Kraków, Poland",50.0645833,19.9565658,4.2,37,Województwo małopolskie,31-501
Kraków,hospital,II Department of Cardiology,"| Budynek G, poziom 1, Macieja Jakubowskiego 2, 30-688 Kraków, Poland",50.00913569999999,20.0011546,4.2,19,Województwo małopolskie,30-688
Kraków,hospital,Samodzielny Publiczny Zakład Opieki Zdrowotnej Szpital...,"Mikołaja Kopernika 17, 31-501 Kraków, Poland",50.0620513,19.9500462,1.0,2,Województwo małopolskie,31-501
Kraków,hospital,Oddział Kliniczny Onkologii Szpitala Uniwersyteckiego w Krakowie,"Mikołaja Kopernika 50, 31-501 Kraków, Poland",50.0645833,19.9565658,3.2,22,Województwo małopolskie,31-501
Kraków,hospital,Private Health Care GALL-MED,"Kronikarza Galla 25, 30-053 Kraków, Poland",50.0719948,19.9131147,3.6,19,Województwo małopolskie,30-053
Kraków,hospital,Szpital Uniwersytecki w Krakowie - Oddział Onkologiczny,"Lubicz 27A, 31-504 Kraków, Poland",50.065048,19.9564157,4.4,7,Województwo małopolskie,31-506
Kraków,hospital,CenterMed,"świętego Łazarza 14, 31-530 Kraków, Poland",50.0601949,19.9515136,3.7,100,Województwo małopolskie,31-530
Kraków,hospital,Zakład Opieki Zdrowotnej Aresztu Śledczego W Krakowie,"Montelupich 7, 31-155 Kraków, Poland",50.0739359,19.9399061,5.0,1,Województwo małopolskie,31-155
Kraków,hospital,Sekcja odczynników (Szpital Uniwersytecki w Krakowie),"Mikołaja Kopernika 19A, 31-531 Kraków, Poland",50.0620864,19.9527403,0.0,0,Województwo małopolskie,31-531
Kraków,school,Embassy International School,"Edmunda Biernackiego 10, 30-043 Kraków, Poland",50.0728613,19.9245317,4.5,39,Województwo małopolskie,30-043
Kraków,school,British International School of Cracow,"Smoleńsk 25, 31-108 Kraków, Poland",50.058892,19.9290481,4.4,20,Województwo małopolskie,31-108
Kraków,school,International School of Kraków,"Świętego Floriana 57, 32-020 Lusina, Poland",49.97131419999999,19.9172472,4.5,24,Województwo małopolskie,30-697
Kraków,school,Cracow International School - Błonia,"Leona Wyczółkowskiego 7, 30-118 Kraków, Poland",50.0572572,19.9150264,4.2,15,Województwo małopolskie,30-118
Kraków,school,Cracow International School - Olsza,"Andrzeja Sokołowskiego 19/19A, 31-436 Kraków, Poland",50.07812329999999,19.9679188,3.3,53,Województwo małopolskie,31-436
Kraków,school,Da Vinci's International Schools,"Pilotów 4C, 31-462 Kraków, Poland",50.0786257,19.9705093,4.3,25,Województwo małopolskie,31-462
Kraków,school,Kolegium Europejskie,"Ślusarska 9, 30-710 Kraków, Poland",50.0483394,19.9610702,3.6,40,Województwo małopolskie,33-332
Kraków,school,Accent School of Polish,"Kącik 6, 30-549 Kraków, Poland",50.04740229999999,19.9558179,4.8,129,Województwo małopolskie,30-549
Kraków,school,Open Future International School,"Kwiecista 25, 30-389 Kraków, Poland",50.008331,19.892782,4.1,66,Województwo małopolskie,30-389
Kraków,school,Varia Center of Polish Language,"Piotra Michałowskiego 2/3, 31-126 Kraków, Poland",50.06661020000001,19.9289777,5.0,172,Województwo małopolskie,31-126
Kraków,school,V High School. A. Witkowski,"Studencka 12, 31-116 Kraków, Poland",50.062362,19.9287675,4.3,146,Województwo małopolskie,31-116
Kraków,school,Gloker. Post-secondary school and courses in Krakow,"Basztowa 4/1, 31-134 Kraków, Poland",50.0663722,19.9360649,4.7,233,Województwo małopolskie,31-134
Kraków,school,VI High School A. Mickiewicz,"Wąska 7, 31-057 Kraków, Poland",50.0505076,19.9475936,3.5,103,Województwo małopolskie,31-057
Kraków,school,Krakow Montessori School,"Skośna 47, 30-383 Kraków, Poland",50.00920559999999,19.9048638,4.3,26,Województwo małopolskie,30-383
Kraków,school,Wawel International School,"Leona Wyczółkowskiego 7, 30-118 Kraków, Poland",50.0572568,19.914941,5.0,2,Województwo małopolskie,30-118
Kraków,school,Global School,"Westerplatte 2, 30-001 Kraków, Poland",50.0619703,19.944578,5.0,146,Województwo małopolskie,31-033
Kraków,school,Private School - Studio Kingdom Krakow,"Kapelanka 17, 30-347 Kraków, Poland",50.0389796,19.9259628,4.6,23,Województwo małopolskie,30-347
Kraków,school,Polonijka - polska internetowa szkoła podstawowa dla dzieci,"Szlak 20/8, 31-153 Kraków, Poland",50.071543,19.936464,4.9,105,Województwo małopolskie,31-153
Kraków,school,BC Primary School - dwujęzyczna szkoła podstawowa,"Pana Tadeusza 4, 30-727 Kraków, Poland",50.0464861,19.974679,4.8,16,Województwo małopolskie,30-727
Kraków,school,ESTI school,"prof. Michała Życzkowskiego 19, 31-864 Kraków, Poland",50.0795131,19.9941549,5.0,16,Województwo małopolskie,31-864
Kraków,school,Polish language school TOGETHER,"Starowiślna 1, 31-038 Kraków, Poland",50.0591654,19.9422301,4.3,157,Województwo małopolskie,31-038
Kraków,school,Kolegium Europejskie. Europejska Niepubliczna Szkoła Podstawowa w Krakowie,"Ślusarska 9, 30-710 Kraków, Poland",50.0484729,19.9611117,4.0,7,Województwo małopolskie,33-332
Kraków,school,Prywatne Akademickie Centrum Kształcenia s.c.,"Karmelicka 45, 31-128 Kraków, Poland",50.0678293,19.9281349,4.8,36,Województwo małopolskie,31-128
Kraków,school,X High School. National Education Commission,"Zygmunta Wróblewskiego 8, 31-148 Kraków, Poland",50.0694668,19.9396482,3.7,96,Województwo małopolskie,31-148
Kraków,school,V Private High School,"Smoleńsk 14, 31-112 Kraków, Poland",50.0583811,19.9281055,3.8,23,Województwo małopolskie,31-112
Kraków,school,GLOSSA Polish Language School - Szkoła języków obcych,"Józefa Dietla 103, 31-031 Kraków, Poland",50.0574343,19.9467211,4.6,16,Województwo małopolskie,31-031
Kraków,school,Open Future International High School,"Pawła z Krosna 10, 30-389 Kraków, Poland",50.0042054,19.8936612,4.0,9,Województwo małopolskie,30-389
Kraków,school,Wyższa Szkoła Ekonomii i Informatyki w Krakowie,"Świętego Filipa 17, 31-150 Kraków, Poland",50.0681689,19.9411486,4.5,169,Województwo małopolskie,31-150
Kraków,school,II High School. King Jan III Sobieski,"Króla, Jana Sobieskiego 9, 31-136 Kraków, Poland",50.0682965,19.9312667,3.6,104,Województwo małopolskie,31-136
Kraków,school,Polskie Szkoły Internetowe Libratus,"Szlak 20/7, 31-153 Kraków, Poland",50.071543,19.936464,4.9,477,Województwo małopolskie,31-153
Kraków,school,XLI High School,"Rynek Kleparski 18, 31-150 Kraków, Poland",50.067328,19.9415215,3.7,27,Województwo małopolskie,31-150
Kraków,school,III Private High School,"Sławkowska 20, 31-016 Kraków, Poland",50.0641862,19.9378146,4.3,24,Województwo małopolskie,33-332
Kraków,school,I Liceum Ogólnokształcące im. Bartłomieja Nowodworskiego w Krakowie,"plac Na Groblach 9, 30-101 Kraków, Poland",50.0569474,19.9333053,3.6,84,Województwo małopolskie,31-101
Kraków,school,IV High School. Tadeusz Kosciuszko,"Krzemionki 11, 30-525 Kraków, Poland",50.0411625,19.9460036,3.3,100,Województwo małopolskie,30-525
Kraków,school,Zespół Szkół Ekonomicznych nr 1 w Krakowie,"Kapucyńska 2, 31-113 Kraków, Poland",50.06186810000001,19.9314462,2.9,109,Województwo małopolskie,31-113
Kraków,school,Prywatna Szkoła Podstawowa i VII Prywatne LO im. M. Reja,"Grodzka 60, 31-044 Kraków, Poland",50.05579119999999,19.9390954,4.0,26,Województwo małopolskie,31-044
Kraków,school,Cracow Bursa School,"Bolesława Prusa 7, 30-109 Kraków, Poland",50.05492049999999,19.9184373,3.7,57,Województwo małopolskie,30-109
Kraków,school,Szkoły Policealne Edu Unischool,"Karmelicka 14/4, 31-128 Kraków, Poland",50.0642424,19.9319178,4.1,14,Województwo małopolskie,31-128
Kraków,school,eLingwista - Szkoła Językowa Online. Kursy przez Skype,"Kujawska 10/2, 30-042 Kraków, Poland",50.072837,19.9226208,4.9,171,Województwo małopolskie,30-042
Kraków,school,Catholic Primary School Montessori,"Księdza Pawlickiego 1, 30-320 Kraków, Poland",50.0432357,19.9180374,4.2,26,Województwo małopolskie,30-320
Kraków,school,Akademia Muzyczna im. Krzysztofa Pendereckiego w Krakowie,"Świętego Tomasza 43, 31-027 Kraków, Poland",50.0617184,19.9432165,4.6,151,Województwo małopolskie,31-027
Kraków,school,IV Prywatne Liceum Ogólnokształcące im. Królów Polskich w Krakowie,"Basztowa 17, 31-143 Kraków, Poland",50.06626,19.940659,2.8,26,Województwo małopolskie,31-143
Kraków,school,Katolickie Szkoły im. Świętej Rodziny z Nazaretu w Krakowie,"Pędzichów 13, 31-152 Kraków, Poland",50.0699578,19.9404503,2.7,68,Województwo małopolskie,31-152
Kraków,school,INSPIRACJA sp. z o.o.,"Jana i Jędrzeja Śniadeckich 12b, 31-531 Kraków, Poland",50.0599642,19.9557123,4.2,40,Województwo małopolskie,31-531
Kraków,school,Leonardo School,"Mikołaja Reja 13, 31-216 Kraków, Poland",50.0861871,19.9443629,5.0,1,Województwo małopolskie,31-215
Kraków,school,School number 666,"Prądnicka 43, 31-202 Kraków, Poland",50.08403939999999,19.9385591,5.0,1,Województwo małopolskie,31-202
Kraków,school,York - language school to learn English Krakow,"Bursztynowa 20, 31-213 Kraków, Poland",50.0924395,19.9445234,4.0,62,Województwo małopolskie,31-221
Kraków,school,Ignatianum Academy in Krakow,"Mikołaja Kopernika 26, 31-501 Kraków, Poland",50.0626915,19.9488768,4.2,143,Województwo małopolskie,31-501
Kraków,school,Zespół Szkół Ogólnokształcących nr 1,"Księdza Franciszka Blachnickiego 1, 31-535 Kraków, Poland",50.055354,19.9514358,3.5,38,Województwo małopolskie,31-535
Kraków,school,VIII Prywatne Akademickie Liceum Ogólnokształcące,"Karmelicka 45, 31-128 Kraków, Poland",50.0677378,19.9282417,3.9,15,Województwo małopolskie,31-128
Kraków,school,Waldorfska Szkoła Podstawowa im. Janusza Korczaka,"Kazimierza Wielkiego 33, 30-074 Kraków, Poland",50.07270219999999,19.9220254,4.0,26,Województwo małopolskie,30-074
Kraków,school,English Primary School - Pilotów,"Pilotów 4C, 31-462 Kraków, Poland",50.078458,19.9702859,5.0,2,Województwo małopolskie,31-462
Kraków,school,Polish language school Wymiary Polskości,"Napoleona Cybulskiego 6, 33-332 Kraków, Poland",50.0618877,19.9269241,5.0,25,Województwo małopolskie,31-117
Kraków,school,Towarzystwo Społecznej Szkoły Podstawowej,"Piotra Michałowskiego 10, 31-126 Kraków, Poland",50.066156,19.928344,3.2,29,Województwo małopolskie,31-126
Kraków,school,XX High School,"Szlak 5, 31-161 Kraków, Poland",50.07037219999999,19.9336149,3.4,88,Województwo małopolskie,31-161
Kraków,school,School of Management and Banking in Krakow,"aleja Kijowska 14, 30-079 Kraków, Poland",50.0719303,19.9153768,4.6,173,Województwo małopolskie,30-079
Kraków,school,Школа,"Długa 46, 31-141 Kraków, Poland",50.0697842,19.937093,4.0,1,Województwo małopolskie,31-146
Kraków,school,Medical School,"Lubelska 24/6, 30-003 Kraków, Poland",50.0745,19.9342241,5.0,21,Województwo małopolskie,30-003
Kraków,school,Oslo School of Language and Culture,"Długa 46/7, 31-147 Kraków, Poland",50.0697552,19.9371348,5.0,26,Województwo małopolskie,31-146
Kraków,school,Cosinus Kraków - Szkoły Policealne i Licea dla dorosłych,"Kremerowska 17, 31-130 Kraków, Poland",50.0677595,19.9289254,3.8,187,Województwo małopolskie,31-130
Gdańsk,restaurant,Canis Restaurant | Restauracja Stare Miasto Gdańsk,"Ogarna 27/28, 80-826 Gdańsk, Poland",54.3478892,18.6508271,4.7,1715,Województwo pomorskie,80-826
Gdańsk,restaurant,Chleb i Wino Stągiewna Gdańsk Restauracja,"Stągiewna 17, 80-750 Gdańsk, Poland",54.3472985,18.6590499,4.6,12780,Województwo pomorskie,80-750
Gdańsk,restaurant,Restauracja Gvara,"Chlebnicka 48/51, 80-830 Gdańsk, Poland",54.3493,18.6532424,4.6,3092,Województwo pomorskie,80-834
Gdańsk,restaurant,Pomelo Bistro Bar,"Ogarna 121/122, 80-826 Gdańsk, Poland",54.3486029,18.6491162,4.6,4110,Województwo pomorskie,80-826
Gdańsk,restaurant,TYGLE Gdańskie restauracja polska Gdańsk Chmielna,"Chmielna 10, 80-748 Gdańsk, Poland",54.3485185,18.6573098,4.8,1381,Województwo pomorskie,80-748
Gdańsk,restaurant,Swojski Smak,"Jana Heweliusza 25/27, 80-861 Gdańsk, Poland",54.35696069999999,18.6524599,4.5,5944,Województwo pomorskie,80-890
Gdańsk,restaurant,Restauracja GOLDWASSER,"Długie Pobrzeże 22, 80-888 Gdańsk, Poland",54.3501279,18.6571088,4.4,1501,Województwo pomorskie,80-888
Gdańsk,restaurant,Restauracja Bazar,"Szafarnia 6, 80-755 Gdańsk, Poland",54.3497923,18.6603263,4.6,2483,Województwo pomorskie,80-755
Gdańsk,restaurant,MANNA 68 - restauracja wegańska,"Świętego Ducha 68, 80-834 Gdańsk, Poland",54.3501376,18.6549683,4.7,3367,Województwo pomorskie,80-834
Gdańsk,restaurant,Motlava Restaurant,"Stara Stocznia 2/1, 80-858 Gdańsk, Poland",54.3551935,18.6630526,4.6,1734,Województwo pomorskie,80-858
Gdańsk,restaurant,Pierogarnia Mandu Gdańsk Śródmieście,"Elżbietańska 4/8, 80-894 Gdańsk, Poland",54.3537573,18.6467672,4.8,13893,Województwo pomorskie,80-894
Gdańsk,restaurant,Billy's American Restaurants Chmielna,"Chmielna 3/8, 80-748 Gdańsk, Poland",54.349176,18.6576852,4.8,6216,Województwo pomorskie,80-748
Gdańsk,restaurant,Chleb i Wino Chmielna Gdańsk Restauracja,"Chmielna 3/7, 80-748 Gdańsk, Poland",54.349501,18.6579025,4.6,8555,Województwo pomorskie,80-748
Gdańsk,restaurant,Gdański Bowke,"Długie Pobrzeże 11, 80-888 Gdańsk, Poland",54.3490846,18.6564111,4.4,4720,Województwo pomorskie,80-888
Gdańsk,restaurant,Pyra Bar,"Garbary 6/7, 80-827 Gdańsk, Poland",54.3488495,18.6481129,4.5,8051,Województwo pomorskie,80-827
Gdańsk,restaurant,Słony Spichlerz,"Chmielna 10, 80-748 Gdańsk, Poland",54.349108,18.6579131,4.6,4941,Województwo pomorskie,80-748
Gdańsk,restaurant,Pan Papuga,"Długa 81/83, 80-831 Gdańsk, Poland",54.349702,18.6484189,4.7,2005,Województwo pomorskie,80-831
Gdańsk,restaurant,Pierogarnia Stary Młyn,"Świętego Ducha 64, 80-834 Gdańsk, Poland",54.3501901,18.6546246,4.5,8864,Województwo pomorskie,80-834
Gdańsk,restaurant,Zafishowani - restaurant - wine bar&store,"ul. Tokarska 6, wejście od ul. Długie Pobrzeże, Tokarska 6, 80-888 Gdańsk, Poland",54.351229,18.657649,4.6,1983,Województwo pomorskie,80-888
Gdańsk,restaurant,Fino,"Grząska 1, 80-833 Gdańsk, Poland",54.34921809999999,18.6551712,4.8,1134,Województwo pomorskie,80-833
Gdańsk,restaurant,Piwnica Rajców,"Długi Targ 44, 80-830 Gdańsk, Poland",54.348706,18.6532875,4.5,3464,Województwo pomorskie,80-830
Gdańsk,restaurant,The Lobster House Gdańsk,"Długie Pobrzeże 24, 80-888 Gdańsk, Poland",54.3501668,18.6571743,4.8,179,Województwo pomorskie,80-888
Gdańsk,restaurant,Targ Rybny - Fishmarkt,"Targ Rybny 6C, 80-837 Gdańsk, Poland",54.3529725,18.6573417,4.4,1411,Województwo pomorskie,80-837
Gdańsk,restaurant,Restauracja Dominikańska,"Garbary 2/4, 80-827 Gdańsk, Poland",54.34922419999999,18.6482621,4.6,2857,Województwo pomorskie,80-827
Gdańsk,restaurant,Ça va Restocafe,"Węglarska 1, 80-834 Gdańsk, Poland",54.35136929999999,18.6500849,4.8,462,Województwo pomorskie,80-834
Gdańsk,restaurant,Pueblo,"Kołodziejska 4, 80-836 Gdańsk, Poland",54.3508277,18.6495333,4.7,10107,Województwo pomorskie,80-836
Gdańsk,restaurant,Kubicki,"Wartka 5, 80-841 Gdańsk, Poland",54.3537257,18.6593128,4.5,1826,Województwo pomorskie,80-841
Gdańsk,restaurant,Maniera - Restauracja Gdańsk,"Chmielna 10/UB06, 80-748 Gdańsk, Poland",54.348219,18.6572727,4.7,715,Województwo pomorskie,80-748
Gdańsk,restaurant,"Wine Bar ""Literacka""","Mariacka 50/52, 80-833 Gdańsk, Poland",54.3498931,18.6540834,4.7,962,Województwo pomorskie,80-833
Gdańsk,restaurant,Restauracja Ritz,"Szafarnia 6/u6, 80-755 Gdańsk, Poland",54.3501442,18.6603279,4.5,646,Województwo pomorskie,80-755
Gdańsk,restaurant,OSTRO. Pizza Napoletana,"Długie Pobrzeże 15, 80-888 Gdańsk, Poland",54.3496429,18.6569305,4.6,4904,Województwo pomorskie,80-888
Gdańsk,restaurant,Tekstylia,"Szeroka 11/13, 80-885 Gdańsk, Poland",54.3515433,18.650622,4.5,3114,Województwo pomorskie,80-835
Gdańsk,restaurant,Winne Grono,"Mikołaja Kopernika 17a, 80-208 Gdańsk, Poland",54.3624424,18.6370154,4.7,1144,Województwo pomorskie,80-208
Gdańsk,restaurant,Billy’s American Restaurant.,"Warzywnicza 10A/e, 80-838 Gdańsk, Poland",54.3516944,18.6577417,4.7,9203,Województwo pomorskie,80-838
Gdańsk,restaurant,Restauracja Mezalians Gdańsk,"Świętego Ducha 66, 80-834 Gdańsk, Poland",54.35017029999999,18.65482,4.8,296,Województwo pomorskie,80-834
Gdańsk,restaurant,Pasta House,"Lawendowa 9, 80-840 Gdańsk, Poland",54.3529462,18.6527886,4.5,1229,Województwo pomorskie,80-840
Gdańsk,restaurant,Pierogarnia Mandu Gdańsk Oliwa,"Kaprów 19d, 80-316 Gdańsk, Poland",54.4090741,18.5669834,4.7,8719,Województwo pomorskie,80-316
Gdańsk,restaurant,Panorama,"ul. Wały Piastowskie 1 (Zieleniak 16 piętro), 80-854 Gdańsk, Poland",54.3583931,18.6465064,4.3,2621,Województwo pomorskie,80-854
Gdańsk,restaurant,Bar Pod Rybą,"Piwna 61/63, 80-831 Gdańsk, Poland",54.35036789999999,18.6505187,4.5,3739,Województwo pomorskie,80-831
Gdańsk,restaurant,Mono kitchen Gdansk,"Piwna 28/31, 80-831 Gdańsk, Poland",54.3495021,18.6523916,4.3,3038,Województwo pomorskie,80-831
Gdańsk,restaurant,Billy's American Restaurants Forum Gdańsk,"Forum, Targ Sienny 7, 80-806 Gdańsk, Poland",54.350068,18.6446122,4.8,3935,Województwo pomorskie,80-806
Gdańsk,restaurant,Bar Turystyczny,"Szeroka 8/10, 80-835 Gdańsk, Poland",54.3517398,18.6504279,4.4,8389,Województwo pomorskie,80-835
Gdańsk,restaurant,Familia Bistro,"Garbary 2/4, 80-827 Gdańsk, Poland",54.3491799,18.6482532,4.5,3412,Województwo pomorskie,80-827
Gdańsk,restaurant,Pan Kotowski,"Ogarna 11/12, 80-826 Gdańsk, Poland",54.34836019999999,18.6492643,4.6,2167,Województwo pomorskie,80-823
Gdańsk,restaurant,Restaurant Chmielna,"Chmielna 26, 80-748 Gdańsk, Poland",54.34761469999999,18.6566514,4.6,729,Województwo pomorskie,80-748
Gdańsk,restaurant,Shanti,"Szeroka 49/50, 80-835 Gdańsk, Poland",54.3508428,18.6552757,4.8,1584,Województwo pomorskie,80-835
Gdańsk,restaurant,Hora de España,"Wały Jagiellońskie 28/30, 80-853 Gdańsk, Poland",54.3525048,18.6464718,4.7,2758,Województwo pomorskie,80-853
Gdańsk,restaurant,REDNEK Burger Gdańsk,"Szeroka 8/10, 80-835 Gdańsk, Poland",54.35178630000001,18.650208,4.7,3587,Województwo pomorskie,80-835
Gdańsk,restaurant,CHEF food&friends,"Długa 11, 80-827 Gdańsk, Poland",54.34933909999999,18.6491674,4.3,1284,Województwo pomorskie,80-827
Gdańsk,restaurant,Brovarnia Gdańsk I Restauracja i Browar w Gdańsku,"Szafarnia 9, 80-755 Gdańsk, Poland",54.34923190000001,18.6606351,4.3,1385,Województwo pomorskie,80-755
Gdańsk,restaurant,Restauracja KOS,"Piwna 9/10, 80-831 Gdańsk, Poland",54.3501464,18.6503766,4.4,4580,Województwo pomorskie,80-831
Gdańsk,restaurant,Vis a Vis Restauracja Piwna 52/53,"Piwna 52/53, 80-831 Gdańsk, Poland",54.350064,18.6514487,4.7,147,Województwo pomorskie,80-831
Gdańsk,restaurant,Gruba Ryba,"Jantarowa 21, 80-501 Gdańsk, Poland",54.4135208,18.6238994,4.4,5371,Województwo pomorskie,80-500
Gdańsk,restaurant,"ReBro - Ribs, Burgers & Steaks","Chlebnicka 13/16, 80-830 Gdańsk, Poland",54.3487145,18.6550732,4.6,2323,Województwo pomorskie,80-830
Gdańsk,restaurant,Gambas Seafood&Meat,"Garncarska 7/8/9, 80-886 Gdańsk, Poland",54.35297980000001,18.647063,4.7,905,Województwo pomorskie,80-894
Gdańsk,restaurant,Restauracja Geneza Jedzenia i Wina Gdańsk,"Chmielna 10, 80-748 Gdańsk, Poland",54.3489514,18.6576535,4.5,1224,Województwo pomorskie,80-748
Gdańsk,restaurant,La Muerte Mexican Cocktail Bar,"Mariacka 1, 80-833 Gdańsk, Poland",54.3497123,18.6539908,4.7,606,Województwo pomorskie,80-833
Gdańsk,restaurant,Content Restaurant & Wine Bar & Cocktail Bar & Śniadania Gdańsk,"Angielska Grobla 35/42, 80-756 Gdańsk, Poland",54.35058429999999,18.660905,4.8,111,Województwo pomorskie,80-756
Gdańsk,restaurant,Cała Naprzód,"Tokarska 21/25, 88-888 Gdańsk, Poland",54.3508023,18.6572575,4.5,1446,Województwo pomorskie,80-888
Gdańsk,restaurant,Woosabi Gdańsk,"Chmielna 10, 80-748 Gdańsk, Poland",54.3477506,18.6571613,4.5,3748,Województwo pomorskie,80-748
Gdańsk,museum,Museum of the Second World War,"plac Władysława Bartoszewskiego 1, 80-862 Gdańsk, Poland",54.35604129999999,18.6599765,4.7,45148,Województwo pomorskie,80-862
Gdańsk,museum,National Museum in Gdańsk,"Toruńska 1, 80-822 Gdańsk, Poland",54.3454255,18.6468929,4.5,2354,Województwo pomorskie,80-822
Gdańsk,museum,Muzeum Bursztynu. Oddział Muzeum Gdańska,"Wielkie Młyny 16, 80-849 Gdańsk, Poland",54.3539843,18.6499734,4.7,8742,Województwo pomorskie,80-849
Gdańsk,museum,Westerplatte Museum,"mjr. Henryka Sucharskiego 70, 80-601 Gdańsk, Poland",54.4066017,18.668584,4.7,9528,Województwo pomorskie,80-601
Gdańsk,museum,National Maritime Museum in Gdańsk,"Ołowianka 9-13, 80-751 Gdańsk, Poland",54.35089900000001,18.659019,4.6,3432,Województwo pomorskie,80-751
Gdańsk,museum,Museum of Gdańsk - Main Town Hall,"Długa 46, 80-831 Gdańsk, Poland",54.3487903,18.6526543,4.6,1829,Województwo pomorskie,80-831
Gdańsk,museum,DeJa Vu Muzeum,"Długie Ogrody 18, 80-765 Gdańsk, Poland",54.3472826,18.6633693,4.3,2714,Województwo pomorskie,80-765
Gdańsk,museum,Archaeological Museum in Gdansk,"Mariacka 25/26, 80-833 Gdańsk, Poland",54.3492833,18.6564542,4.3,464,Województwo pomorskie,80-833
Gdańsk,museum,Museum of the Polish Post Office,"plac Obrońców Poczty Polskiej 1/2, 80-800 Gdańsk, Poland",54.3550632,18.6566634,4.5,1322,Województwo pomorskie,80-800
Gdańsk,museum,European Solidarity Centre,"pI. Solidarności 1, 80-863 Gdańsk, Poland",54.361313,18.64974,4.8,8120,Województwo pomorskie,80-863
Gdańsk,museum,Old Toy Gallery,"Piwna 19/21, 80-831 Gdańsk, Poland",54.3498702,18.6514133,4.3,942,Województwo pomorskie,80-831
Gdańsk,museum,Ośrodek Kultury Morskiej. Oddział Narodowego Muzeum Morskiego,"Tokarska 21/25, 80-888 Gdańsk, Poland",54.351041,18.657456,4.5,2202,Województwo pomorskie,80-888
Gdańsk,museum,Wartownia 1,"mjr. Henryka Sucharskiego 70, 80-601 Gdańsk, Poland",54.4060549,18.676036,4.7,438,Województwo pomorskie,80-601
Gdańsk,museum,"The ship-museum ""Sołdek."" Branch of the National Maritime Museum","Ołowianka 9-13, 80-751 Gdańsk, Poland",54.3514361,18.6586447,4.7,2768,Województwo pomorskie,80-751
Gdańsk,museum,Artus Court,"Długi Targ 43-44, 80-831 Gdańsk, Poland",54.34879189999999,18.653381,4.6,1928,Województwo pomorskie,80-831
Gdańsk,museum,Blue Lamb - Branch of the Archaeological Museum in Gdańsk,"Chmielna 53, 80-748 Gdańsk, Poland",54.344842,18.655074,4.7,468,Województwo pomorskie,80-748
Gdańsk,museum,Wisłoujście Fortress,"Stara Twierdza 1, 80-551 Gdańsk, Poland",54.3956609,18.679898,4.6,3890,Województwo pomorskie,80-551
Gdańsk,museum,Muzeum Figur Woskowych Gdańsk Baszta Tajemnic,"Motławska 14, 80-750 Gdańsk, Poland",54.347179,18.6598378,4.3,658,Województwo pomorskie,80-750
Gdańsk,museum,Piwnica Romańska - Muzeum Archeologiczne w Gdańsku,"Plac Dominikański 1, 80-844 Gdańsk, Poland",54.3524924,18.6517768,4.5,493,Województwo pomorskie,80-844
Gdańsk,museum,Westerplatte,"80-001 Gdańsk, Poland",54.4066936,18.6669688,4.7,21995,Pomeranian Voivodeship,
Gdańsk,museum,Uphagen's House,"Długa 12, 80-827 Gdańsk, Poland",54.34933299999999,18.6493389,4.3,925,Województwo pomorskie,80-827
Gdańsk,museum,Römischer Keller,"Plac Dominikański 1, 80-844 Gdańsk, Poland",54.3527569,18.6519967,3.4,5,Województwo pomorskie,80-884
Gdańsk,museum,Crane. Branch of the National Martime Museum,"Szeroka 67/68, 80-835 Gdańsk, Poland",54.3504901,18.6574225,4.7,3756,Województwo pomorskie,80-835
Gdańsk,museum,Historical Zone Free City Of Gdansk,"Długi Targ 25/27, 80-830 Gdańsk, Poland",54.3481456,18.6556892,4.7,182,Województwo pomorskie,80-830
Gdańsk,museum,Hevelianum,"Gradowa 6, 80-802 Gdańsk, Poland",54.3565426,18.6389617,4.4,1517,Województwo pomorskie,80-802
Gdańsk,museum,Gdansk gallery Günter Grass,"Szeroka 34/35, 36, 37, 80-825 Gdańsk, Poland",54.3511731,18.6536627,4.5,140,Województwo pomorskie,80-835
Gdańsk,museum,BHP Hall,"Księdza Jerzego Popiełuszki 6, 80-864 Gdańsk, Poland",54.3614113,18.6519939,4.6,2009,Województwo pomorskie,80-864
Gdańsk,museum,Muzeum,"Okopowa 7, 80-819 Gdańsk, Poland",54.3488637,18.6464016,4.8,169,Województwo pomorskie,80-819
Gdańsk,museum,Spichlerz Opacki - Muzeum Etnograficzne,"Cystersów 19, 80-330 Gdańsk, Poland",54.4115474,18.5593249,4.5,238,Województwo pomorskie,80-330
Gdańsk,museum,Wystawa Budowli z Klocków LEGO® Gdańsk,"GALERIA METROPOLIA, poziom +2, Jana Kilińskiego 4, 80-452 Gdańsk, Poland",54.3829197,18.6052765,4.3,1319,Województwo pomorskie,80-452
Gdańsk,museum,Gdansk Gallery of Photography,"NOMUS, Stefana Jaracza 14, 80-863 Gdańsk, Poland",54.36313510000001,18.6478161,4.3,59,Województwo pomorskie,80-863
Gdańsk,museum,Gdańska Galeria Zmysłów,"Okopowa 7, 80-819 Gdańsk, Poland",54.34888470000001,18.6465551,4.9,106,Województwo pomorskie,80-819
Gdańsk,museum,Museum Of Gdańsk Science,"Wielkie Młyny 10, 80-849 Gdańsk, Poland",54.3542143,18.6505645,3.7,6,Województwo pomorskie,80-849
Gdańsk,museum,Imperial Shipyard,"Narzędziowców 33, 80-001 Gdańsk, Poland",54.3628473,18.6535979,4.6,120,Województwo pomorskie,80-958
Gdańsk,museum,Centrum Sztuki Współczesnej ŁAŹNIA 1,"Jaskółcza 1, 80-767 Gdańsk, Poland",54.3415781,18.6579453,4.2,352,Województwo pomorskie,80-767
Gdańsk,museum,Muzeum Lechii Gdańsk,"Pokoleń Lechii Gdańsk 1, 80-001 Gdańsk, Poland",54.3906728,18.6393337,4.3,35,Województwo pomorskie,80-560
